latitude,longitude,country,year,protestnumber,startday,startmonth,startyear,endday,endmonth,endyear,protesterviolence,location,participants_category,participants,protesteridentity,protesterdemand1,stateresponse1,protest_length
21,57,Oman,2018,1,1,1,2018,15,1,2018,0,Muscat,100-999,hundreds,protesters,"price increases, tax policy",ignore,14
52.52437,13.41053,Germany,2018,11,15,3,2018,28,3,2018,0,Berlin,50-99,50,women,social restrictions,ignore,13
37.09654,-4.38869,Spain,2018,1,1,1,2018,11,1,2018,0,ARCHIDONA,50-99,50,activists,"political behavior, process",ignore,10
57.16543,-2.10045,United Kingdom,2018,8,13,3,2018,22,3,2018,0,University of Aberdeen,50-99,50+,Students,labor wage dispute,ignore,9
50.9,6.43333,Germany,2018,10,1,3,2018,6,3,2018,1,Hambach Forest,50-99,50,environmentalists,land farm issue,ignore,5
33.72148,73.04329,Pakistan,2018,2,1,2,2018,6,2,2018,0,Islamabad,5000-10000,">5,000",Protesters demanding Pashtun rights,social restrictions,ignore,5
47.38113,-1.70949,France,2018,3,15,1,2018,18,1,2018,0,Notre Dame des Landes,100-999,hundreds,environmentalists,land farm issue,accomodation,3
5,39,Ethiopia,2018,1,12,2,2018,13,2,2018,1,Province of Oromia,100-999,100+,Oromia opposition members,police brutality,killings,1
15.55177,32.53241,Sudan,2018,1,16,1,2018,17,1,2018,0,Khartoum,2000-4999,Thousands,Protesters objecting to Sudan s rapidly rising prices,"price increases, tax policy",arrests,1
-14.33333,28.5,Zambia,2018,1,20,1,2018,21,1,2018,0,Zambia,50-99,50+,Protesters marching for women s empowerment,social restrictions,ignore,1
34.2908,70.37334,Afghanistan,2018,2,17,3,2018,17,3,2018,0,Chaparhar,50-99,50,human rights activists,police brutality,ignore,0
34.52813,69.17233,Afghanistan,2018,1,9,3,2018,9,3,2018,0,Kabul,100-999,hundreds,Hazaras,"political behavior, process",ignore,0
23.7104,90.40744,Bangladesh,2018,1,8,2,2018,8,2,2018,1,Dhaka,2000-4999,Thousands,"Opposition activists supporting Bangladesh s former Prime Minister,Khaleda Zia, who has been found guilty of corruption and sentenced to five years in jail",police brutality,crowd dispersal,0
53.9,27.56667,Belarus,2018,2,24,3,2018,24,3,2018,0,Minsk,100-999,hundreds,opposition,"political behavior, process",arrests,0
-22.90642,-43.18223,Brazil,2018,1,18,3,2018,18,3,2018,0,Rio de Janeiro,2000-4999,thousands,Black Genocide,"political behavior, process",ignore,0
42.69751,23.32415,Bulgaria,2018,1,11,1,2018,11,1,2018,0,Sofia,50-99,50,police officers,labor wage dispute,ignore,0
42.69751,23.32415,Bulgaria,2018,2,11,1,2018,11,1,2018,0,Sofia,2000-4999,thousands,environmentalists,land farm issue,ignore,0
54.0001,-106.00099,Canada,2018,1,9,2,2018,9,2,2018,0,Saskatchewan,100-999,widespread,Indigenous,"political behavior, process",accomodation,0
22.27832,114.17469,China,2018,1,1,1,2018,1,1,2018,0,Hong Kong,5000-10000,thousands,democracy activists,"political behavior, process",crowd dispersal,0
4.60971,-74.08175,Colombia,2018,1,26,1,2018,26,1,2018,0,Bogota,2000-4999,thousands,motorcyclists,social restrictions,crowd dispersal,0
-2.5,23.5,Congo Kinshasa,2018,2,25,2,2018,25,2,2018,0,Kinshasa,50-99,50+,Protesters against President Kabila,removal of politician,shootings,0
18.47186,-69.89232,Dominican Republic,2018,3,1,2,2018,1,2,2018,0,Santo Domingo,>10000,tens of thousands,Marcha Verde,"political behavior, process",ignore,0
18.47186,-69.89232,Dominican Republic,2018,2,15,1,2018,15,1,2018,0,Santo Domingo,>10000,tens of thousands,Marcha Verde,"political behavior, process",ignore,0
18.47186,-69.89232,Dominican Republic,2018,1,1,1,2018,1,1,2018,0,Santo Domingo,>10000,tens of thousands,Marcha Verde,"political behavior, process",ignore,0
43.80806,4.64417,France,2018,2,15,1,2018,15,1,2018,0,Beaucaire,100-999,150,residents,social restrictions,ignore,0
48.78232,9.17702,Germany,2018,5,29,1,2018,29,1,2018,0,Stuttgart,50-99,50,Stuttgart 21,land farm issue,ignore,0
48.78232,9.17702,Germany,2018,4,22,1,2018,22,1,2018,0,Stuttgart,50-99,50,Stuttgart 21,land farm issue,ignore,0
48.78232,9.17702,Germany,2018,2,8,1,2018,8,1,2018,0,Stuttgart,50-99,50,Stuttgart 21,land farm issue,ignore,0
48.78232,9.17702,Germany,2018,9,26,2,2018,26,2,2018,0,Stuttgart,50-99,50,Stuttgart 21,land farm issue,ignore,0
48.78232,9.17702,Germany,2018,1,1,1,2018,1,1,2018,0,Stuttgart,50-99,50,Stuttgart 21,land farm issue,ignore,0
48.78232,9.17702,Germany,2018,3,15,1,2018,15,1,2018,0,Stuttgart,50-99,50,Stuttgart 21,land farm issue,ignore,0
48.78232,9.17702,Germany,2018,7,12,2,2018,12,2,2018,0,Stuttgart,50-99,50,Stuttgart 21,land farm issue,ignore,0
48.78232,9.17702,Germany,2018,6,5,2,2018,5,2,2018,0,Stuttgart,50-99,50,Stuttgart 21,land farm issue,ignore,0
48.78232,9.17702,Germany,2018,8,19,2,2018,19,2,2018,0,Stuttgart,50-99,50,Stuttgart 21,land farm issue,ignore,0
5.55602,-0.1969,Ghana,2018,1,28,3,2018,28,3,2018,0,Accra,2000-4999,">3,000",Ghanaians protesting a deal that would give the United States military an expanded role in Ghana,"political behavior, process",ignore,0
37.98376,23.72784,Greece,2018,1,15,1,2018,15,1,2018,1,Athens,>10000,20000,anti austerity protesters,labor wage dispute,crowd dispersal,0
14.64072,-90.51327,Guatemala,2018,1,14,1,2018,14,1,2018,0,Guatemala City,100-999,hundreds,protesters,"political behavior, process",crowd dispersal,0
18.54349,-72.33881,Haiti,2018,1,28,3,2018,28,3,2018,0,Port au Prince,100-999,hundreds,journalists,police brutality,ignore,0
15.48654,-86.16322,Honduras,2018,2,20,1,2018,20,1,2018,1,Saba,100-999,100,Honduran Opposition Alliance Against the Dictatorship in Tegucigalpa,"political behavior, process",crowd dispersal,0
15.50417,-88.025,Honduras,2018,1,6,1,2018,6,1,2018,0,San Pedro Sula,2000-4999,thousands,Honduran Opposition Alliance Against the Dictatorship in Tegucigalpa,"political behavior, process",ignore,0
14.0818,-87.20681,Honduras,2018,3,27,1,2018,27,1,2018,1,Tegucigalpa,>10000,thousands,Honduran Opposition Alliance Against the Dictatorship in Tegucigalpa,"political behavior, process",crowd dispersal,0
47.49835,19.04045,Hungary,2018,1,11,3,2018,11,3,2018,0,Budapest,>10000,100000,nationalists,social restrictions,ignore,0
35.69439,51.42151,Iran,2018,3,10,1,2018,10,1,2018,0,Tehran,100-999,hundreds,Sufis,police brutality,ignore,0
33.34058,44.40088,Iraq,2018,1,31,3,2018,31,3,2018,0,Baghdad,50-99,60,women,social restrictions,ignore,0
53.33306,-6.24889,Ireland,2018,1,12,3,2018,12,3,2018,0,Dublin,50-99,50+,Members of several taxi unions,labor wage dispute,ignore,0
44.49381,11.33875,Italy,2018,3,16,2,2018,16,2,2018,0,Bologna,50-99,50,Anti Fascists,social restrictions,crowd dispersal,0
41.89193,12.51133,Italy,2018,4,24,2,2018,24,2,2018,0,Rome,2000-4999,thousands,Anti Fascists,social restrictions,ignore,0
45.07049,7.68682,Italy,2018,2,9,2,2018,9,2,2018,0,Turin,50-99,50,Brothers of Italy,social restrictions,ignore,0
-1.28333,36.81667,Kenya,2018,1,30,1,2018,30,1,2018,0,Nairobi,2000-4999,Thousands,Thousands denouncing Kenya s   electoral autocracy   and   election stealing.,"political behavior, process",crowd dispersal,0
56.946,24.10589,Latvia,2018,2,24,2,2018,24,2,2018,0,Riga,1000-1999,1000,Russian Union of Latvia,social restrictions,ignore,0
56.946,24.10589,Latvia,2018,1,8,2,2018,8,2,2018,0,Riga,100-999,100,Russian Union of Latvia,social restrictions,ignore,0
56.946,24.10589,Latvia,2018,3,10,3,2018,10,3,2018,0,Riga,2000-4999,3000,Russian Union of Latvia,social restrictions,ignore,0
33.89332,35.50157,Lebanon,2018,1,28,1,2018,28,1,2018,0,Beirut,50-99,50,residents,"political behavior, process",ignore,0
6.12104,100.36014,Malaysia,2018,2,9,3,2018,9,3,2018,0,Alor Star,50-99,50+,A group of Gagasan Sejahtera supporters,"political behavior, process",ignore,0
3.1412,101.68653,Malaysia,2018,4,28,3,2018,28,3,2018,1,Kuala Lumpur,100-999,About 300,Electoral reform group Bersih 2.0,"political behavior, process",crowd dispersal,0
3.1412,101.68653,Malaysia,2018,3,24,3,2018,24,3,2018,0,Kuala Lumpur,50-99,>50,Taman Tun Dr Ismail  TTDI  residents,land farm issue,ignore,0
34.31,-2.16,Morocco,2018,1,14,3,2018,14,3,2018,1,Jerada,100-999,100,protesters,"political behavior, process",crowd dispersal,0
-27,17.5,Namibia,2018,1,1,2,2018,1,2,2018,0,Karas region,50-99,50+,FRUSTRATED youth of Gibeon,social restrictions,ignore,0
52.07667,4.29861,Netherlands,2018,1,11,2,2018,11,2,2018,0,Den Haag,50-99,50+,Concerned citizens tired of Holland being held up as a perfect model in dealing with prostitution,"political behavior, process",ignore,0
9.33333,12.5,Nigeria,2018,9,7,3,2018,7,3,2018,0,Adamawa State,100-999,Hundreds,"Internally displaced persons, IDPs, mostly women and children, from Fufore and Malkohi camps in Adamawa State","political behavior, process",ignore,0
9.05785,7.49508,Nigeria,2018,4,10,1,2018,10,1,2018,1,"Federal Capital Territory, Abuja",100-999,Over 100,"Members of the El Zakzaky led Islamic Movement in Nigeria,IMN",police brutality,arrests,0
6.45407,3.39467,Nigeria,2018,6,6,2,2018,6,2,2018,0,Lagos,50-99,50+,Pensioners of the defunct Nigeria Airways,labor wage dispute,ignore,0
31.11866,74.45025,Pakistan,2018,1,11,1,2018,11,1,2018,1,Kasur,50-99,50+,Protests opposed to the apparent incompetence and slow response of the authorities after murders of children began in 2015.,"political behavior, process",crowd dispersal,0
34.19794,72.04965,Pakistan,2018,3,7,2,2018,7,2,2018,0,Mardan,50-99,50+,Protesters opposed to an anti terrorism court sentencing one man to death and 25 others to prison terms because the ruling was meant to send a strong warning that murder in the name of defending Islam would not be tolerated,"political behavior, process",ignore,0
52.22977,21.01178,Poland,2018,3,23,3,2018,23,3,2018,0,Warsaw,5000-10000,thousands,women,social restrictions,ignore,0
52.22977,21.01178,Poland,2018,2,10,2,2018,10,2,2018,0,Warsaw,50-99,50,protesters,"political behavior, process",ignore,0
55.75222,37.61556,Russia,2018,2,24,3,2018,24,3,2018,0,Moscow,50-99,50,protesters,land farm issue,arrests,0
1.28528,103.84528,Singapore,2018,1,3,3,2018,3,3,2018,0,Hong Lim Park,100-999,About 120,Protesters against the planned hike in the goods and services tax  GST  announced at the Budget,"price increases, tax policy",ignore,0
48.14816,17.10674,Slovak Republic,2018,4,23,3,2018,23,3,2018,0,Bratislava,>10000,25000,For a Decent Slovakia,"political behavior, process",ignore,0
46.05108,14.50513,Slovenia,2018,1,14,3,2018,14,3,2018,0,Ljubljana,50-99,50,teachers,labor wage dispute,ignore,0
37.56289,126.96965,South Korea,2018,2,11,2,2018,11,2,2018,0,Central Seoul,100-999,A few hundred,"Anti North Korea, anti cooperation demonstrators","political behavior, process",ignore,0
37.566,126.9784,South Korea,2018,1,5,2,2018,5,2,2018,1,Seoul,50-99,50+,"Protesters yelling that Lee Jae yong, de facto head of the Samsung conglomerate, should still be locked up in prison.","political behavior, process",crowd dispersal,0
41.38879,2.15899,Spain,2018,4,4,3,2018,4,3,2018,0,Barcelona,>10000,15000,protesters,"political behavior, process",ignore,0
41.38879,2.15899,Spain,2018,3,25,2,2018,25,2,2018,0,Barcelona,100-999,500,Catalans,"political behavior, process",ignore,0
41.38879,2.15899,Spain,2018,2,30,1,2018,30,1,2018,0,Catalonia,2000-4999,3000,Catalans,police brutality,ignore,0
41.38879,2.15899,Spain,2018,7,25,3,2018,25,3,2018,1,Catalonia,>10000,tens of thousands,Catalans,police brutality,crowd dispersal,0
40.4165,-3.70256,Spain,2018,6,15,3,2018,15,3,2018,1,Madrid,100-999,hundreds,protesters,police brutality,crowd dispersal,0
13.75692,100.50167,Thailand,2018,5,16,2,2018,16,2,2018,0,"Democracy Monument, Bangkok",50-99,50 people,People,"political behavior, process",arrests,0
36.81897,10.16579,Tunisia,2018,2,10,3,2018,10,3,2018,0,Tunis,100-999,hundreds,women,social restrictions,ignore,0
51.50853,-0.12574,United Kingdom,2018,2,5,2,2018,5,2,2018,0,London,2000-4999,Thousands,People s Assembly Against Austerity and Health Campaigns Together,"political behavior, process",ignore,0
51.521,-0.1253,United Kingdom,2018,9,20,3,2018,20,3,2018,0,University of London,50-99,50+,Students,labor wage dispute,crowd dispersal,0
50.45466,30.5238,Ukraine,2017,1,17,10,2017,3,3,2018,0,Kiev,5000-10000,5000,protesters,"political behavior, process",arrests,137
35.25165,-3.93723,Morocco,2017,2,29,5,2017,27,8,2017,1,al Hoceima,100-999,100,Hirak Chaabi,police brutality,arrests,90
34.87573,8.82869,Tunisia,2017,2,14,3,2017,28,5,2017,1,El Kamour,5000-10000,thousands,youth,"political behavior, process",crowd dispersal,75
14.64072,-90.51327,Guatemala,2017,1,27,8,2017,9,11,2017,0,Guatemala City,100-999,hundreds,protesters,"political behavior, process",ignore,74
36.81897,10.16579,Tunisia,2017,1,7,1,2017,27,2,2017,0,Tunis,100-999,hundreds,anti terrorism protesters,"political behavior, process",ignore,51
35.25165,-3.93723,Morocco,2017,4,1,7,2017,1,8,2017,0,al Hoceima,>10000,1000000,Hirak Chaabi,police brutality,arrests,31
55.75222,37.61556,Russia,2017,9,14,5,2017,14,6,2017,0,Moscow,>10000,30000,women,land farm issue,ignore,31
59.93863,30.31413,Russia,2017,1,28,1,2017,23,2,2017,0,St. Petersburg,5000-10000,about 8000,protesters,"political behavior, process",ignore,26
45.50884,-73.58781,Canada,2017,1,1,10,2017,26,10,2017,0,Montreal,50-99,50,Muslim Council of Montreal,social restrictions,ignore,25
33.72148,73.04329,Pakistan,2017,8,5,11,2017,25,11,2017,1,Islamabad,2000-4999,">3,000","Protesters led by Khadim Hussain Rizvi of the Tehreek e Labaik Pakistan party, that are opposed to amending a law that requires all political candidates to affirm their belief that Muhammad, who lived in the 7th century, was Islam s final prophet, and demanding the federal law minister be fired","political behavior, process",crowd dispersal,20
-16.5,-68.15,Bolivia,2017,1,15,4,2017,4,5,2017,0,La Paz,100-999,hundreds,handicapped,social restrictions,crowd dispersal,19
-12.04318,-77.02824,Peru,2017,3,15,10,2017,1,11,2017,0,Lima,100-999,100,women,social restrictions,ignore,17
11.24802,75.7804,India,2017,5,1,6,2017,16,6,2017,0,Kozhikode,50-99,Volunteers and a line formed of people participating to cook beef and share it with strangers in the streets,People protesting new rules restricting the sale of cattle in markets,"political behavior, process",ignore,15
-33.45694,-70.64827,Chile,2017,2,1,7,2017,15,7,2017,0,Santiago,50-99,50,women,social restrictions,ignore,14
4.60971,-74.08175,Colombia,2017,2,1,4,2017,15,4,2017,0,Bogota,1000-1999,1000,opposition,"political behavior, process",ignore,14
37.98376,23.72784,Greece,2017,6,15,6,2017,29,6,2017,0,Athens,1000-1999,1000,garbage collectors,labor wage dispute,ignore,14
41.89193,12.51133,Italy,2017,1,24,3,2017,6,4,2017,0,Rome,100-999,100,residents,land farm issue,accomodation,13
-5,-78.23333,Peru,2017,2,15,8,2017,26,8,2017,0,Amazon region,50-99,50,Indigenous,land farm issue,ignore,11
7.76694,-72.225,Venezuela,2017,12,15,5,2017,26,5,2017,1,San Cristobal,1000-1999,Mass protests,Residents of San Cristobal,"political behavior, process",crowd dispersal,11
-34.61315,-58.37723,Argentina,2017,7,10,12,2017,20,12,2017,1,Buenos Aires,>10000,tens of thousands,labor unions,labor wage dispute,crowd dispersal,10
9.05785,7.49508,Nigeria,2017,28,17,10,2017,27,10,2017,1,Abuja,50-99,50+,"The group of protesters led by activist cum entertainer, Charles Oputa also known as Charly Boy","political behavior, process",ignore,10
31.95522,35.94503,Jordan,2017,1,16,7,2017,25,7,2017,0,Amman,50-99,50,Howeitat,police brutality,arrests,9
36.9,7.76667,Algeria,2017,2,1,8,2017,8,8,2017,0,Annaba,2000-4999,thousands,women,social restrictions,ignore,7
-20,-40.75,Brazil,2017,1,4,2,2017,11,2,2017,0,Espirito Santo,50-99,a few dozen,police,labor wage dispute,crowd dispersal,7
37.62304,13.93457,Italy,2017,6,15,7,2017,22,7,2017,0,Sicily,50-99,50,Five Star Movement,land farm issue,ignore,7
33.89332,35.50157,Lebanon,2017,1,1,6,2017,8,6,2017,0,Beirut,2000-4999,thousands,residents,"political behavior, process",ignore,7
-25.28646,-57.647,Paraguay,2017,1,25,3,2017,1,4,2017,0,Asuncion,2000-4999,thousands,businessmen,"price increases, tax policy",ignore,7
13.08784,80.27847,India,2017,1,17,1,2017,23,1,2017,1,State of Tamil Nadu,2000-4999,Thousands,Southern Indians protesting on behalf of their cultural identity,"political behavior, process",arrests,6
54.13153,18.46487,Poland,2017,1,4,6,2017,10,6,2017,0,Postolowo,50-99,50,environmentalists,land farm issue,ignore,6
31.22222,121.45806,China,2017,4,5,6,2017,10,6,2017,0,Shanghai,100-999,hundreds,home buyers,land farm issue,accomodation,5
31.31901,48.6842,Iran,2017,2,16,2,2017,20,2,2017,0,Ahvaz,100-999,increasingly large gatherings,residents,removal of politician,ignore,4
41.99646,21.43141,Macedonia,2017,1,1,3,2017,5,3,2017,0,Skopje,5000-10000,thousands,nationalists,"political behavior, process",ignore,4
10.48801,-66.87919,Venezuela,2017,2,31,3,2017,4,4,2017,1,Caracas,2000-4999,Several thousand protesters,Students; Supporters of parliament; Opposition activists,"political behavior, process",beatings,4
34.52813,69.17233,Afghanistan,2017,2,2,6,2017,5,6,2017,1,Kabul,5000-10000,thousands,Uprising for Change,removal of politician,crowd dispersal,3
47.49835,19.04045,Hungary,2017,3,12,4,2017,15,4,2017,0,Budapest,>10000,tens of thousands,protesters,"political behavior, process",ignore,3
36.22347,44.7665,Iraq,2017,3,19,12,2017,21,12,2017,1,Kurdistan,2000-4999,100 wounded,Kurds,"political behavior, process",crowd dispersal,2
26.22787,50.58565,Bahrain,2017,1,14,1,2017,15,1,2017,0,Manama,50-99,>50,Shiites,police brutality,ignore,1
50.08804,14.42076,Czech Republic,2017,2,15,12,2017,16,12,2017,0,Prague,100-999,400,anti populists,"political behavior, process",ignore,1
15.33805,38.93184,Eritrea,2017,1,30,10,2017,31,10,2017,1,Asmara,100-999,100+,Protesters opposed to the demand by the government to control a Muslim school,social restrictions,crowd dispersal,1
41.89193,12.51133,Italy,2017,7,26,8,2017,27,8,2017,0,Rome,5000-10000,5000,protesters,land farm issue,crowd dispersal,1
-1.28333,36.81667,Kenya,2017,2,13,5,2017,14,5,2017,0,Nairobi,50-99,50+,"Doreen Musungu, head teacher of Kenyatta Golf Course Academy, and her pupils",land farm issue,ignore,1
41.99646,21.43141,Macedonia,2017,4,27,4,2017,28,4,2017,1,Skopje,2000-4999,2000,protesters,"political behavior, process",crowd dispersal,1
33.72148,73.04329,Pakistan,2017,9,25,11,2017,26,11,2017,1,Islamabad,>10000,Millions,Protesters opposed to what they believed was an insult to the prophet Muhammad by the government,"political behavior, process",crowd dispersal,1
44.80401,20.46513,Serbia,2017,2,24,6,2017,25,6,2017,0,Belgrade,100-999,100,gays,social restrictions,ignore,1
41.38879,2.15899,Spain,2017,14,2,10,2017,3,10,2017,0,Barcelona,>10000,hundreds of thousands,Catalans,police brutality,ignore,1
41.38879,2.15899,Spain,2017,12,30,9,2017,1,10,2017,0,Catalonia,1000-1999,1000,Catalans,"political behavior, process",crowd dispersal,1
41.38426,2.17258,Spain,2017,8,20,9,2017,21,9,2017,0,Catalonia; Madrid,>10000,40000,Catalans,police brutality,ignore,1
41.38426,2.17258,Spain,2017,15,7,10,2017,8,10,2017,0,Madrid; Barcelona,>10000,350000,Catalans,"political behavior, process",ignore,1
6.12874,1.22154,Togo,2017,5,9,9,2017,10,9,2017,0,Lome,2000-4999,2000+,"Protesters mainly calling for the restoration of the country s 1992 constitution, which imposes term limits","political behavior, process",ignore,1
-17.82772,31.05337,Zimbabwe,2017,5,18,11,2017,19,11,2017,0,Harare,>10000,Tens of thousands,Zimbabweans calling for President Robert Mugabe to give up power,removal of politician,ignore,1
36.83333,65.83333,Afghanistan,2017,1,26,4,2017,26,4,2017,0,Jowzjan Province,2000-4999,2000,protesters,"political behavior, process",ignore,0
34.52813,69.17233,Afghanistan,2017,3,3,7,2017,3,7,2017,0,Kabul,100-999,hundreds,Uprising for Change,"political behavior, process",ignore,0
41.3275,19.81889,Albania,2017,1,13,5,2017,13,5,2017,0,Tirana,2000-4999,thousands,opposition,"political behavior, process",ignore,0
41.3275,19.81889,Albania,2017,2,18,12,2017,18,12,2017,1,Tirana,2000-4999,3000,opposition,"political behavior, process",crowd dispersal,0
-8.83682,13.23432,Angola,2017,1,18,3,2017,18,3,2017,0,Luanda,100-999,200,women,"political behavior, process",ignore,0
-34.61315,-58.37723,Argentina,2017,5,1,9,2017,1,9,2017,1,Buenos Aires,>10000,tens of thousands,Mapuche,police brutality,crowd dispersal,0
-34.61315,-58.37723,Argentina,2017,6,1,10,2017,1,10,2017,0,Buenos Aires,>10000,tens of thousands,Mapuche,police brutality,crowd dispersal,0
-34.61315,-58.37723,Argentina,2017,4,7,8,2017,7,8,2017,1,Buenos Aires,50-99,50,Mapuche,"political behavior, process",crowd dispersal,0
23.7104,90.40744,Bangladesh,2017,1,22,1,2017,22,1,2017,0,Dhaka,100-999,A few hundred,Conservative Islamic religious scholars,"political behavior, process",ignore,0
23.7104,90.40744,Bangladesh,2017,2,26,5,2017,26,5,2017,0,Dhaka,50-99,50+,Protest against the removal of a statue deemed  un Islamic  by religious hardliners,social restrictions,crowd dispersal,0
52.40944,31.32278,Belarus,2017,4,18,3,2017,18,3,2017,0,Dobrush,50-99,50+,protesters,"political behavior, process",ignore,0
53.9,27.56667,Belarus,2017,1,17,2,2017,17,2,2017,0,Minsk,50-99,50+,protesters,"price increases, tax policy",ignore,0
53.9,27.56667,Belarus,2017,7,8,9,2017,8,9,2017,0,Minsk,100-999,200,protesters,"political behavior, process",ignore,0
53.9,27.56667,Belarus,2017,5,25,3,2017,25,3,2017,0,Minsk,100-999,700,protesters,"political behavior, process",arrests,0
53.9,27.56667,Belarus,2017,2,15,3,2017,15,3,2017,0,Minsk,2000-4999,2000+,protesters,"price increases, tax policy",arrests,0
53.9,27.56667,Belarus,2017,6,26,3,2017,26,3,2017,0,Minsk,2000-4999,2000,2000,"price increases, tax policy",arrests,0
52.1229,26.0951,Belarus,2017,3,15,3,2017,15,3,2017,0,Pinsk,50-99,50+,protesters,labor wage dispute,ignore,0
6.36536,2.41833,Benin,2017,1,9,1,2017,9,1,2017,0,Cotonou,100-999,100+,doctors,labor wage dispute,ignore,0
-10,-55,Brazil,2017,4,26,4,2017,26,4,2017,1,Brasilia,50-99,a group,Indigenous,land farm issue,crowd dispersal,0
-22.9689,-43.1791,Brazil,2017,3,2,4,2017,2,4,2017,0,Copacabana Beach,50-99,50,protesters,"political behavior, process",ignore,0
-25.42778,-49.27306,Brazil,2017,6,11,5,2017,11,5,2017,0,Curitiba,100-999,hundreds,protesters,"political behavior, process",crowd dispersal,0
11.56245,104.91601,Cambodia,2017,1,14,2,2017,14,2,2017,0,Phnom Penh,100-999,About 100 villagers,"Villagers from Prek Chik, a village in the southwestern province of Koh Kong",land farm issue,crowd dispersal,0
-33.45694,-70.64827,Chile,2017,3,19,11,2017,19,11,2017,0,Santiago,50-99,50,protesters,"political behavior, process",ignore,0
39.9075,116.39723,China,2017,8,24,7,2017,24,7,2017,0,Beijing,100-999,hundreds,investors,"political behavior, process",crowd dispersal,0
39.9075,116.39723,China,2017,10,10,12,2017,10,12,2017,0,Beijing,100-999,hundreds,migrants,land farm issue,ignore,0
39.89497,115.76162,China,2017,3,4,6,2017,4,6,2017,0,Beijing; Hong Kong,1000-1999,thousands,democracy activists,"political behavior, process",arrests,0
22.27832,114.17469,China,2017,1,9,1,2017,9,1,2017,0,Hong Kong,50-99,>50,Hong Kong residents,"political behavior, process",ignore,0
22.27832,114.17469,China,2017,5,24,6,2017,24,6,2017,0,Hong Kong,50-99,30 arrested,democracy activists,"political behavior, process",arrests,0
22.27832,114.17469,China,2017,7,10,7,2017,10,7,2017,0,Hong Kong,50-99,dozens,protesters,social restrictions,ignore,0
22.27832,114.17469,China,2017,6,1,7,2017,1,7,2017,0,Hong Kong,>10000,tens of thousands,democracy activists,"political behavior, process",arrests,0
22.27832,114.17469,China,2017,9,20,8,2017,20,8,2017,0,Hong Kong,2000-4999,thousands,democracy activists,"political behavior, process",ignore,0
4.60971,-74.08175,Colombia,2017,1,22,1,2017,22,1,2017,1,Bogot,100-999,hundreds,anti bullfighting,"political behavior, process",crowd dispersal,0
1.79112,-78.79275,Colombia,2017,3,5,10,2017,5,10,2017,0,Tumaco,50-99,50,farmers,land farm issue,crowd dispersal,0
-2.5,23.5,Congo Kinshasa,2017,1,31,7,2017,31,7,2017,0,Democratic Republic of Congo,100-999,>100,"Protesters against President Kabila, who has refused to step down or hold fresh elections since his term as president ended in December last year",removal of politician,arrests,0
-2.5,23.5,Congo Kinshasa,2017,2,31,12,2017,31,12,2017,0,Kinshasa,1000-1999,1000+,Protesters demonstrating against President Joseph Kabila s refusal to step down from power,removal of politician,arrests,0
23.13302,-82.38304,Cuba,2017,2,8,1,2017,8,1,2017,0,Havana,50-99,dozens,ladies in white,"political behavior, process",ignore,0
23.13302,-82.38304,Cuba,2017,1,1,1,2017,1,1,2017,0,Havana,50-99,dozens,ladies in white,"political behavior, process",ignore,0
49.19522,16.60796,Czech Republic,2017,1,1,5,2017,1,5,2017,0,Brno,100-999,hundreds,neo nazis,"political behavior, process",ignore,0
18.47186,-69.89232,Dominican Republic,2017,14,15,7,2017,15,7,2017,0,Santo Domingo,>10000,tens of thousands,Marcha Verde,"political behavior, process",ignore,0
18.47186,-69.89232,Dominican Republic,2017,20,15,10,2017,15,10,2017,0,Santo Domingo,>10000,tens of thousands,Marcha Verde,"political behavior, process",ignore,0
18.47186,-69.89232,Dominican Republic,2017,24,15,12,2017,15,12,2017,0,Santo Domingo,>10000,tens of thousands,Marcha Verde,"political behavior, process",ignore,0
18.47186,-69.89232,Dominican Republic,2017,1,1,1,2017,1,1,2017,0,Santo Domingo,>10000,tens of thousands,Marcha Verde,"political behavior, process",ignore,0
18.47186,-69.89232,Dominican Republic,2017,3,1,2,2017,1,2,2017,0,Santo Domingo,>10000,tens of thousands,Marcha Verde,"political behavior, process",ignore,0
18.47186,-69.89232,Dominican Republic,2017,10,15,5,2017,15,5,2017,0,Santo Domingo,>10000,tens of thousands,Marcha Verde,"political behavior, process",ignore,0
18.47186,-69.89232,Dominican Republic,2017,13,1,7,2017,1,7,2017,0,Santo Domingo,>10000,tens of thousands,Marcha Verde,"political behavior, process",ignore,0
18.47186,-69.89232,Dominican Republic,2017,5,1,3,2017,1,3,2017,0,Santo Domingo,>10000,tens of thousands,Marcha Verde,"political behavior, process",ignore,0
18.47186,-69.89232,Dominican Republic,2017,2,15,1,2017,15,1,2017,0,Santo Domingo,>10000,tens of thousands,Marcha Verde,"political behavior, process",ignore,0
18.47186,-69.89232,Dominican Republic,2017,16,15,8,2017,15,8,2017,0,Santo Domingo,>10000,tens of thousands,Marcha Verde,"political behavior, process",ignore,0
18.47186,-69.89232,Dominican Republic,2017,4,15,2,2017,15,2,2017,0,Santo Domingo,>10000,tens of thousands,Marcha Verde,"political behavior, process",ignore,0
18.47186,-69.89232,Dominican Republic,2017,9,1,5,2017,1,5,2017,0,Santo Domingo,>10000,tens of thousands,Marcha Verde,"political behavior, process",ignore,0
18.47186,-69.89232,Dominican Republic,2017,6,15,3,2017,15,3,2017,0,Santo Domingo,>10000,tens of thousands,Marcha Verde,"political behavior, process",ignore,0
18.47186,-69.89232,Dominican Republic,2017,7,1,4,2017,1,4,2017,0,Santo Domingo,>10000,tens of thousands,Marcha Verde,"political behavior, process",ignore,0
18.47186,-69.89232,Dominican Republic,2017,8,15,4,2017,15,4,2017,0,Santo Domingo,>10000,tens of thousands,Marcha Verde,"political behavior, process",ignore,0
18.47186,-69.89232,Dominican Republic,2017,23,1,12,2017,1,12,2017,0,Santo Domingo,>10000,tens of thousands,Marcha Verde,"political behavior, process",ignore,0
18.47186,-69.89232,Dominican Republic,2017,11,1,6,2017,1,6,2017,0,Santo Domingo,>10000,tens of thousands,Marcha Verde,"political behavior, process",ignore,0
18.47186,-69.89232,Dominican Republic,2017,12,15,6,2017,15,6,2017,0,Santo Domingo,>10000,tens of thousands,Marcha Verde,"political behavior, process",ignore,0
18.47186,-69.89232,Dominican Republic,2017,17,1,9,2017,1,9,2017,0,Santo Domingo,>10000,tens of thousands,Marcha Verde,"political behavior, process",ignore,0
18.47186,-69.89232,Dominican Republic,2017,18,15,9,2017,15,9,2017,0,Santo Domingo,>10000,tens of thousands,Marcha Verde,"political behavior, process",ignore,0
18.47186,-69.89232,Dominican Republic,2017,15,1,8,2017,1,8,2017,0,Santo Domingo,>10000,tens of thousands,Marcha Verde,"political behavior, process",ignore,0
18.47186,-69.89232,Dominican Republic,2017,21,1,11,2017,1,11,2017,0,Santo Domingo,>10000,tens of thousands,Marcha Verde,"political behavior, process",ignore,0
18.47186,-69.89232,Dominican Republic,2017,22,15,11,2017,15,11,2017,0,Santo Domingo,>10000,tens of thousands,Marcha Verde,"political behavior, process",ignore,0
18.47186,-69.89232,Dominican Republic,2017,19,1,10,2017,1,10,2017,0,Santo Domingo,>10000,tens of thousands,Marcha Verde,"political behavior, process",ignore,0
30.06263,31.24967,Egypt,2017,3,16,7,2017,16,7,2017,1,Cairo,50-99,50,residents,land farm issue,crowd dispersal,0
30.06263,31.24967,Egypt,2017,2,13,6,2017,13,6,2017,0,Cairo,100-999,100,protesters,land farm issue,arrests,0
30.06263,31.24967,Egypt,2017,1,2,1,2017,2,1,2017,0,Cairo,50-99,12 arrested,legal opposition,"political behavior, process",arrests,0
4,-53,France,2017,5,27,3,2017,27,3,2017,0,French Guiana,50-99,50+,French Guyanese,labor wage dispute,ignore,0
47.06672,3.01183,France,2017,12,26,6,2017,26,6,2017,0,Marseilles,50-99,50,labor unions,labor wage dispute,ignore,0
48.85341,2.3488,France,2017,4,14,3,2017,14,3,2017,0,Paris,50-99,50,rat catchers,labor wage dispute,ignore,0
48.85341,2.3488,France,2017,8,28,4,2017,28,4,2017,0,Paris,100-999,100s,chinese immigrants,police brutality,ignore,0
48.85341,2.3488,France,2017,11,6,6,2017,6,6,2017,0,Paris,100-999,200,CGT union,labor wage dispute,ignore,0
48.85341,2.3488,France,2017,17,23,9,2017,23,9,2017,0,Paris,2000-4999,thousands,labor unions,labor wage dispute,ignore,0
48.85341,2.3488,France,2017,18,30,10,2017,30,10,2017,0,Paris,100-999,100,Femen; Osez le F minisme,social restrictions,ignore,0
48.85341,2.3488,France,2017,13,26,8,2017,26,8,2017,0,Paris,100-999,500,military,labor wage dispute,ignore,0
48.85341,2.3488,France,2017,6,27,3,2017,27,3,2017,1,Paris,50-99,50+,Chinese immigrants,police brutality,arrests,0
48.85341,2.3488,France,2017,16,18,9,2017,18,9,2017,0,Paris,50-99,50,labor unions,labor wage dispute,ignore,0
48.85341,2.3488,France,2017,10,8,5,2017,8,5,2017,0,Paris,2000-4999,several thousand,labor unions,labor wage dispute,ignore,0
48.85341,2.3488,France,2017,14,30,8,2017,30,8,2017,0,Paris,50-99,50,Les Effront  e s,social restrictions,ignore,0
48.85341,2.3488,France,2017,2,23,2,2017,23,2,2017,1,Paris,100-999,100s,students,police brutality,crowd dispersal,0
13.17639,-16.01694,Gambia,2017,5,2,6,2017,2,6,2017,0,Kanilai,50-99,50+,Protesters against the stationing of soldiers in and around Kanilai,police brutality,crowd dispersal,0
13.45,-16.71667,Gambia,2017,4,26,5,2017,26,5,2017,0,Kololi,50-99,50+,"Communities of Bakoteh, Kolili and Sanchaba",land farm issue,ignore,0
13.45,-16.71667,Gambia,2017,6,9,6,2017,9,6,2017,0,Kololi,50-99,50+,Youth of Kololi and surroundings,land farm issue,arrests,0
41.69411,44.83368,Georgia,2017,1,1,11,2017,1,11,2017,0,Tbilisi,50-99,dozens,Georgian March group,social restrictions,arrests,0
52.52437,13.41053,Germany,2017,22,2,8,2017,2,8,2017,0,Berlin,50-99,dozens,environmentalists,"price increases, tax policy",ignore,0
51.05089,13.73832,Germany,2017,35,28,10,2017,28,10,2017,0,Dresden,2000-4999,thousands,civil rights,"political behavior, process",ignore,0
51.53443,9.93228,Germany,2017,37,3,11,2017,3,11,2017,0,Gottingen,50-99,50,Jews,social restrictions,accomodation,0
53.55073,9.99302,Germany,2017,1,10,1,2017,10,1,2017,0,Hamburg,50-99,50,protesters,"political behavior, process",ignore,0
50.86991,6.69691,Germany,2017,38,5,11,2017,5,11,2017,1,Kerpen,2000-4999,2500,miners,labor wage dispute,crowd dispersal,0
52.49973,13.40338,Germany,2017,2,15,3,2017,15,3,2017,0,Kreuzberg Berlin,100-999,100s,protesters,"political behavior, process",ignore,0
48.78232,9.17702,Germany,2017,45,18,12,2017,18,12,2017,0,Stuttgart,50-99,50,Stuttgart 21,land farm issue,ignore,0
48.78232,9.17702,Germany,2017,3,3,4,2017,3,4,2017,0,Stuttgart,50-99,50,Stuttgart 21,land farm issue,ignore,0
48.78232,9.17702,Germany,2017,30,25,9,2017,25,9,2017,0,Stuttgart,50-99,50,Stuttgart 21,land farm issue,ignore,0
48.78232,9.17702,Germany,2017,25,21,8,2017,21,8,2017,0,Stuttgart,50-99,50,Stuttgart 21,land farm issue,ignore,0
48.78232,9.17702,Germany,2017,4,10,4,2017,10,4,2017,0,Stuttgart,50-99,50,Stuttgart 21,land farm issue,ignore,0
48.78232,9.17702,Germany,2017,17,3,7,2017,3,7,2017,0,Stuttgart,50-99,50,Stuttgart 21,land farm issue,ignore,0
48.78232,9.17702,Germany,2017,46,25,12,2017,25,12,2017,0,Stuttgart,50-99,50,Stuttgart 21,land farm issue,ignore,0
48.78232,9.17702,Germany,2017,43,4,12,2017,4,12,2017,0,Stuttgart,50-99,50,Stuttgart 21,land farm issue,ignore,0
48.78232,9.17702,Germany,2017,44,11,12,2017,11,12,2017,0,Stuttgart,50-99,50,Stuttgart 21,land farm issue,ignore,0
48.78232,9.17702,Germany,2017,33,16,10,2017,16,10,2017,0,Stuttgart,50-99,50,Stuttgart 21,land farm issue,ignore,0
48.78232,9.17702,Germany,2017,42,27,11,2017,27,11,2017,0,Stuttgart,50-99,50,Stuttgart 21,land farm issue,ignore,0
48.78232,9.17702,Germany,2017,36,30,10,2017,30,10,2017,0,Stuttgart,50-99,50,Stuttgart 21,land farm issue,ignore,0
48.78232,9.17702,Germany,2017,10,15,5,2017,15,5,2017,0,Stuttgart,50-99,50,Stuttgart 21,land farm issue,ignore,0
48.78232,9.17702,Germany,2017,16,26,6,2017,26,6,2017,0,Stuttgart,50-99,50,Stuttgart 21,land farm issue,ignore,0
48.78232,9.17702,Germany,2017,13,5,6,2017,5,6,2017,0,Stuttgart,50-99,50,Stuttgart 21,land farm issue,ignore,0
48.78232,9.17702,Germany,2017,14,12,6,2017,12,6,2017,0,Stuttgart,50-99,50,Stuttgart 21,land farm issue,ignore,0
48.78232,9.17702,Germany,2017,15,19,6,2017,19,6,2017,0,Stuttgart,50-99,50,Stuttgart 21,land farm issue,ignore,0
48.78232,9.17702,Germany,2017,29,18,9,2017,18,9,2017,0,Stuttgart,50-99,50,Stuttgart 21,land farm issue,ignore,0
48.78232,9.17702,Germany,2017,21,31,7,2017,31,7,2017,0,Stuttgart,50-99,50,Stuttgart 21,land farm issue,ignore,0
48.78232,9.17702,Germany,2017,31,2,10,2017,2,10,2017,0,Stuttgart,50-99,50,Stuttgart 21,land farm issue,ignore,0
48.78232,9.17702,Germany,2017,6,24,4,2017,24,4,2017,0,Stuttgart,50-99,50,Stuttgart 21,land farm issue,ignore,0
48.78232,9.17702,Germany,2017,40,13,11,2017,13,11,2017,0,Stuttgart,50-99,50,Stuttgart 21,land farm issue,ignore,0
48.78232,9.17702,Germany,2017,8,1,5,2017,1,5,2017,0,Stuttgart,50-99,50,Stuttgart 21,land farm issue,ignore,0
48.78232,9.17702,Germany,2017,23,7,8,2017,7,8,2017,0,Stuttgart,50-99,50,Stuttgart 21,land farm issue,ignore,0
48.78232,9.17702,Germany,2017,24,14,8,2017,14,8,2017,0,Stuttgart,50-99,50,Stuttgart 21,land farm issue,ignore,0
48.78232,9.17702,Germany,2017,26,28,8,2017,28,8,2017,0,Stuttgart,50-99,50,Stuttgart 21,land farm issue,ignore,0
48.78232,9.17702,Germany,2017,27,4,9,2017,4,9,2017,0,Stuttgart,50-99,50,Stuttgart 21,land farm issue,ignore,0
48.78232,9.17702,Germany,2017,34,23,10,2017,23,10,2017,0,Stuttgart,50-99,50,Stuttgart 21,land farm issue,ignore,0
48.78232,9.17702,Germany,2017,32,9,10,2017,9,10,2017,0,Stuttgart,50-99,50,Stuttgart 21,land farm issue,ignore,0
48.78232,9.17702,Germany,2017,11,22,5,2017,22,5,2017,0,Stuttgart,50-99,50,Stuttgart 21,land farm issue,ignore,0
48.78232,9.17702,Germany,2017,39,6,11,2017,6,11,2017,0,Stuttgart,50-99,50,Stuttgart 21,land farm issue,ignore,0
48.78232,9.17702,Germany,2017,9,8,5,2017,8,5,2017,0,Stuttgart,50-99,50,Stuttgart 21,land farm issue,ignore,0
48.78232,9.17702,Germany,2017,41,20,11,2017,20,11,2017,0,Stuttgart,50-99,50,Stuttgart 21,land farm issue,ignore,0
48.78232,9.17702,Germany,2017,28,11,9,2017,11,9,2017,0,Stuttgart,50-99,50,Stuttgart 21,land farm issue,ignore,0
48.78232,9.17702,Germany,2017,20,24,7,2017,24,7,2017,0,Stuttgart,50-99,50,Stuttgart 21,land farm issue,ignore,0
48.78232,9.17702,Germany,2017,18,10,7,2017,10,7,2017,0,Stuttgart,50-99,50,Stuttgart 21,land farm issue,ignore,0
48.78232,9.17702,Germany,2017,5,17,4,2017,17,4,2017,0,Stuttgart,50-99,50,Stuttgart 21,land farm issue,ignore,0
48.78232,9.17702,Germany,2017,19,17,7,2017,17,7,2017,0,Stuttgart,50-99,50,Stuttgart 21,land farm issue,ignore,0
48.78232,9.17702,Germany,2017,12,29,5,2017,29,5,2017,0,Stuttgart,50-99,50,Stuttgart 21,land farm issue,ignore,0
37.98376,23.72784,Greece,2017,2,1,5,2017,1,5,2017,0,Athens,5000-10000,thousands,anti austerity protesters,labor wage dispute,ignore,0
37.98376,23.72784,Greece,2017,5,9,6,2017,9,6,2017,1,Athens,5000-10000,thousands,anti austerity protesters,labor wage dispute,ignore,0
40.76667,22.95,Greece,2017,1,22,2,2017,22,2,2017,1,"Oraiokastro, Thessaloniki",100-999,100+,activists,"political behavior, process",crowd dispersal,0
40.64361,22.93086,Greece,2017,7,8,9,2017,8,9,2017,0,Thessaloniki,100-999,hundreds,police officers,labor wage dispute,ignore,0
11.86357,-15.59767,Guinea-Bissau,2017,1,2,3,2017,2,3,2017,0,Bissau,100-999,100s,anti government protestors,removal of politician,ignore,0
11.86357,-15.59767,Guinea-Bissau,2017,2,25,3,2017,25,3,2017,0,Bissau,100-999,100s,anti government protestors,removal of politician,ignore,0
9.53795,-13.67729,Guinea,2017,1,20,2,2017,20,2,2017,1,Conakry,50-99,50+,young people and students,"political behavior, process",shootings,0
18.54349,-72.33881,Haiti,2017,2,29,5,2017,29,5,2017,0,Port au Prince,100-999,500,workers,labor wage dispute,ignore,0
18.54349,-72.33881,Haiti,2017,1,19,5,2017,19,5,2017,0,Port au Prince,5000-10000,thousands,workers,labor wage dispute,ignore,0
47.49835,19.04045,Hungary,2017,1,4,4,2017,4,4,2017,0,Budapest,5000-10000,thousands,students,"political behavior, process",ignore,0
47.49835,19.04045,Hungary,2017,4,21,5,2017,21,5,2017,0,Budapest,5000-10000,thousands,protesters,"political behavior, process",ignore,0
34.16667,74.75,India,2017,9,1,8,2017,1,8,2017,1,Kashmir Valley,50-99,Civilians; a crowd,Civilians protesting the presence of the security forces,"political behavior, process",shootings,0
-6.21462,106.84513,Indonesia,2017,2,1,5,2017,1,5,2017,0,Jakarta,2000-4999,Thousands,Workers,"political behavior, process",ignore,0
35.69439,51.42151,Iran,2017,1,10,1,2017,10,1,2017,0,Tehran,>10000,up to two million,mourners,"political behavior, process",ignore,0
35.69439,51.42151,Iran,2017,5,27,8,2017,27,8,2017,0,Tehran,50-99,dozens,protesters,police brutality,ignore,0
35.69439,51.42151,Iran,2017,3,8,5,2017,8,5,2017,1,Tehran,50-99,dozens,miners,labor wage dispute,ignore,0
35.69439,51.42151,Iran,2017,4,9,5,2017,9,5,2017,0,Tehran,2000-4999,thousands,protesters,"political behavior, process",ignore,0
33.34058,44.40088,Iraq,2017,1,29,9,2017,29,9,2017,0,Baghdad,50-99,50,Kurds,"political behavior, process",ignore,0
53.33306,-6.24889,Ireland,2017,6,30,9,2017,30,9,2017,0,Dublin,>10000,30000,Protesters demanding an end to the country s constitutional ban on abortion,"political behavior, process",ignore,0
53.3406,-6.25417,Ireland,2017,2,2,3,2017,2,3,2017,0,Leinster House Dublin,50-99,50+,"Birdwatch Ireland, The Federation of Irish Beekeepers  Associations, Hedge Laying Association of Ireland, Irish Wildlife Trust, An Taisce","political behavior, process",ignore,0
40.27252,18.33798,Italy,2017,2,28,3,2017,28,3,2017,1,"Melendugno, Puglia",100-999,hundreds,residents,land farm issue,crowd dispersal,0
41.73212,12.27654,Italy,2017,8,10,11,2017,10,11,2017,0,Ostia,50-99,50,journalists,police brutality,ignore,0
41.89193,12.51133,Italy,2017,4,29,6,2017,29,6,2017,0,Rome,50-99,50,Clash City Workers,labor wage dispute,ignore,0
41.89193,12.51133,Italy,2017,3,1,5,2017,1,5,2017,0,Rome,50-99,50,No Vax activists,social restrictions,ignore,0
45.43713,12.33265,Italy,2017,5,2,7,2017,2,7,2017,0,Venice,2000-4999,2500,protesters,social restrictions,ignore,0
5.35444,-4.00167,Ivory Coast,2017,2,7,1,2017,7,1,2017,1,Abidjan,50-99,50+,soldiers,labor wage dispute,ignore,0
-1.28333,36.81667,Kenya,2017,5,9,10,2017,9,10,2017,0,Nairobi,50-99,50+,"Supporters of Raila Odinga, leader of Kenya s opposition alliance","political behavior, process",crowd dispersal,0
-1.28333,36.81667,Kenya,2017,7,24,10,2017,24,10,2017,0,Nairobi,50-99,50+,Opposition to the presidential election that is being re run,"political behavior, process",crowd dispersal,0
-1.28333,36.81667,Kenya,2017,11,28,11,2017,28,11,2017,0,Nairobi,50-99,50+,Opposition demonstrators,"political behavior, process",shootings,0
-1.28333,36.81667,Kenya,2017,1,27,1,2017,27,1,2017,0,Nairobi,50-99,50+,doctors,labor wage dispute,ignore,0
-1.28333,36.81667,Kenya,2017,10,17,11,2017,17,11,2017,1,Nairobi,100-999,100+,Supporters of the opposition politician Raila Odinga,"political behavior, process",shootings,0
42.67272,21.16688,Kosovo,2017,1,10,10,2017,10,10,2017,0,Pristina,100-999,hundreds,gays,social restrictions,ignore,0
56.946,24.10589,Latvia,2017,2,14,12,2017,14,12,2017,0,Riga,5000-10000,5000,Russian Union of Latvia,social restrictions,ignore,0
56.946,24.10589,Latvia,2017,1,16,11,2017,16,11,2017,0,Riga,5000-10000,5000,Russian Union of Latvia,social restrictions,ignore,0
6.30054,-10.7969,Liberia,2017,2,2,8,2017,2,8,2017,0,Monrovia,50-99,50+,Protesters demanding the participation of their candidate in the upcoming elections,"political behavior, process",ignore,0
41.99646,21.43141,Macedonia,2017,3,8,4,2017,8,4,2017,0,Skopje,100-999,hundreds,Anima mundi,social restrictions,ignore,0
-13.96692,33.78725,Malawi,2017,1,1,3,2017,1,3,2017,0,Lilongwe,50-99,50,Catholic Commission for Justice and Peace; Centre for Development of People; Youth and Society; Church and Society,"political behavior, process",ignore,0
5.34961,100.42149,Malaysia,2017,3,11,8,2017,11,8,2017,0,Seberang Prai,50-99,50+,Protesters against Seberang Prai Municipal Council s  MPSP  apparent inaction over the mushrooming of illegal factories despite countless complaints,"political behavior, process",ignore,0
3.08507,101.53281,Malaysia,2017,4,13,8,2017,13,8,2017,1,Shah Alam,50-99,50+,Protesters supporting the families of those affected by the deadly Memali incident in 1985,"political behavior, process",arrests,0
3.08507,101.53281,Malaysia,2017,5,22,9,2017,22,9,2017,0,"Shah Alam, Selangor",100-999,About 100,"Non governmental organisations that are opposed to festivals that celebrated alcohol and the lesbian, gay, bisexual and transgender community in Malaysia","political behavior, process",ignore,0
3.1518,101.793,Malaysia,2017,1,2,4,2017,2,4,2017,0,"Taman Rimba Ampang, Selangor",50-99,50+,Residents of villages surrounding Taman Rimba Ampang that are frustrated over a proposed housing project at the recreation park,land farm issue,ignore,0
16.77348,-3.00742,Mali,2017,2,21,2,2017,21,2,2017,0,Timbuktu,50-99,50+,community members,removal of politician,ignore,0
19.42847,-99.12766,Mexico,2017,3,15,6,2017,15,6,2017,0,Mexico City,50-99,50,protesters,social restrictions,ignore,0
33.58831,-7.61138,Morocco,2017,5,23,8,2017,23,8,2017,0,Casablanca,100-999,hundreds,women,social restrictions,ignore,0
34.01325,-6.83255,Morocco,2017,3,11,6,2017,11,6,2017,0,Rabat,2000-4999,thousands,Hirak Chaabi,police brutality,arrests,0
-17.87861,36.88833,Mozambique,2017,3,21,11,2017,21,11,2017,0,Quelimane,50-99,50+,"Friends and colleagues of murdered musician Max Love, and militants of the opposition Mozambique Democratic Movement  MDM","political behavior, process",ignore,0
16.49051,97.62825,Myanmar,2017,1,15,3,2017,15,3,2017,0,Mawlamyine,>10000,Tens of thousands,Protesters opposed to a decision by Daw Aung San Suu Kyi s government to name a new bridge for her father,"political behavior, process",ignore,0
-26.58333,18.13333,Namibia,2017,1,13,1,2017,13,1,2017,0,Keetmanshoop,50-99,50+,community members,"political behavior, process",accomodation,0
-17.78833,15.70436,Namibia,2017,10,28,11,2017,28,11,2017,0,Oshakati,50-99,50+,"A group representing open market vendors, long distance bus operators and used car dealers","political behavior, process",ignore,0
-17.78833,15.70436,Namibia,2017,4,24,5,2017,24,5,2017,0,Oshakati,50-99,50+,Residents of Ondangwa dissatisfied over plans to build the planned new referral hospital at Ongwediva instead of Ondangwa,social restrictions,ignore,0
-22.55941,17.08323,Namibia,2017,8,17,10,2017,17,10,2017,0,Windhoek,100-999,>150,University of Namibia  Unam  Khomasdal campus student teachers,"political behavior, process",ignore,0
52.37403,4.88969,Netherlands,2017,2,5,4,2017,5,4,2017,0,Amsterdam,100-999,Hundreds,"Dutch politicians, actors, police officers, soldiers, athletes, and people showing their support for gay rights",social restrictions,ignore,0
51.9225,4.47917,Netherlands,2017,1,12,3,2017,12,3,2017,0,Rotterdam,50-99,50+,Turks,"political behavior, process",crowd dispersal,0
18,9,Niger,2017,1,15,12,2017,15,12,2017,0,Niger,50-99,50+,The NGO Alternative Citizen Spaces  Alternative Espace Citoyens,"price increases, tax policy",crowd dispersal,0
9.05785,7.49508,Nigeria,2017,3,25,1,2017,25,1,2017,1,Abuja,50-99,50+,El Zakzaky supporters,"political behavior, process",arrests,0
9.05785,7.49508,Nigeria,2017,13,22,5,2017,22,5,2017,0,Abuja,50-99,50+,"Protesters demanding the release of the leader of the Islamic Movement of Nigeria IMN, Sheikh Ibrahim El Zakzaky",police brutality,crowd dispersal,0
5.75,8.5,Nigeria,2017,6,15,3,2017,15,3,2017,0,Cross River State,1000-1999,1000s,civil and public servants,"political behavior, process",ignore,0
5.5,6,Nigeria,2017,4,31,1,2017,31,1,2017,0,Delta State,50-99,50+,lepers,labor wage dispute,ignore,0
6.25,8.08333,Nigeria,2017,17,23,6,2017,23,6,2017,0,Ebonyi State,2000-4999,Thousands,Teachers in Ebonyi State,"political behavior, process",ignore,0
5.5,7.16667,Nigeria,2017,1,5,1,2017,5,1,2017,0,Imo State,50-99,50+,pensioners,labor wage dispute,ignore,0
8.89367,11.3596,Nigeria,2017,8,22,3,2017,22,3,2017,0,Jalingo,50-99,50+,primary school students and teachers,labor wage dispute,ignore,0
6.45407,3.39467,Nigeria,2017,2,15,1,2017,15,1,2017,0,Lagos,50-99,50+,Coalition of Yoruba Youths,"political behavior, process",ignore,0
7.77104,4.55698,Nigeria,2017,18,11,7,2017,11,7,2017,1,Osogbo,50-99,50+,"Students and staff of Obafemi Awolowo University, Ile ife","political behavior, process",accomodation,0
5.48363,7.03325,Nigeria,2017,27,26,8,2017,26,8,2017,1,Owerri,50-99,50+,Owerri natives following the demolition of the Eke Onunwa market by the state government,labor wage dispute,crowd dispersal,0
4.77742,7.0134,Nigeria,2017,14,22,5,2017,22,5,2017,0,Port Harcourt,50-99,50+,"Protesters in support of Mr George Turnah, a former Special Adviser to erstwhile Managing Director of the Niger Delta Development Commission  NDDC  who was recently arrested by the anti graft agency",police brutality,ignore,0
4.77742,7.0134,Nigeria,2017,33,20,12,2017,20,12,2017,0,Port Harcourt,100-999,Hundreds,"Protesters from oil ravaged Ogoni, Rivers State including members of Ken Saro Wiwa Associates, KSA and other Ogoni indigenes",land farm issue,ignore,0
8,10.5,Nigeria,2017,16,12,6,2017,12,6,2017,0,Taraba State,50-99,50+,Members of Taraba State chapter of Miyeti Allah Cattle Breeders Association of Nigeria,"political behavior, process",ignore,0
5.51737,5.75006,Nigeria,2017,34,28,12,2017,28,12,2017,0,"Warri, Delta State",50-99,50+,"A cross section of students of Niger Delta region comprising members of the National Association of Gbaramatu Students, NAGS, and Law Students Association of Nigeria, LAWSAN, Delta State University, DELSU Chapter",police brutality,ignore,0
4.92675,6.26764,Nigeria,2017,15,5,6,2017,5,6,2017,0,Yenagoa,50-99,50+,"Concerned youths calling for the release of Mr. Edmund Ebiware in connection with the October 1, 2010 Independence Day bomb blasts","political behavior, process",ignore,0
33.72148,73.04329,Pakistan,2017,1,31,1,2017,31,1,2017,0,Islamabad,100-999,About 200,"Supporters of Hafiz Mohammad Saeed, the leader of the Jamaat ul Dawa movement","political behavior, process",ignore,0
33.72148,73.04329,Pakistan,2017,5,28,4,2017,28,4,2017,0,Islamabad,2000-4999,Thousands,"Protesters calling for the resignation of Pakistan s prime minister, Nawaz Sharif, over corruption allegations.",removal of politician,ignore,0
33.72148,73.04329,Pakistan,2017,4,20,4,2017,20,4,2017,0,Islamabad,100-999,100+,Protesters calling for the removal of prime minister Nawaz Sharif,removal of politician,crowd dispersal,0
31.558,74.35071,Pakistan,2017,2,13,2,2017,13,2,2017,0,Lahore,100-999,Hundreds,Pharmacists and drug company officials,"political behavior, process",ignore,0
33.9025,70.07139,Pakistan,2017,3,31,3,2017,31,3,2017,0,Parachinar,100-999,Hundreds,Protesters against the local administration for failing to provide them with adequate security,"political behavior, process",crowd dispersal,0
-6,155,Papua New Guinea,2017,1,15,6,2017,15,6,2017,0,Bougainville,50-99,50+,Protesters opposed to renewing the licence of a controversial mining company,"political behavior, process",accomodation,0
-2.0341,147.27173,Papua New Guinea,2017,3,31,10,2017,31,10,2017,0,Lorengau,100-999,About 100,Locals,"political behavior, process",ignore,0
-5.85746,144.23058,Papua New Guinea,2017,2,15,7,2017,15,7,2017,1,Mount Hagen,50-99,50+,Protesters opposed to counting irregularities during the PNG parliament elections,"political behavior, process",crowd dispersal,0
-12.04318,-77.02824,Peru,2017,1,12,1,2017,12,1,2017,0,Lima,2000-4999,thousands,residents,"price increases, tax policy",arrests,0
14.6042,120.9822,Philippines,2017,3,21,9,2017,21,9,2017,0,Manila,5000-10000,"Around 5,000",Protesters against the Duterte administration,"political behavior, process",ignore,0
14.6042,120.9822,Philippines,2017,2,15,8,2017,15,8,2017,0,Manila,2000-4999,Thousands,Protesters organized by the Roman Catholic Church that are opposed to the police allegedly shooting 17 year old Kian delos Santos in an execution style killing,police brutality,ignore,0
14.6042,120.9822,Philippines,2017,1,18,2,2017,18,2,2017,0,Manila,>10000,"At least 10,000 people",People opposed to killings under President Rodrigo Duterte s drug war; Catholic Church,"political behavior, process",ignore,0
8,125,Philippines,2017,6,10,12,2017,10,12,2017,0,Mindanao,50-99,50+,Various groups denouncing the Duterte administration s illegal drug campaign and alleged military violations under the martial law,"political behavior, process",ignore,0
52.22977,21.01178,Poland,2017,4,11,11,2017,11,11,2017,0,Warsaw,>10000,60000,nationalists,social restrictions,ignore,0
52.22977,21.01178,Poland,2017,6,8,12,2017,8,12,2017,0,Warsaw,100-999,hundreds,Citizens of the Republic of Poland,"political behavior, process",ignore,0
52.22977,21.01178,Poland,2017,2,25,6,2017,25,6,2017,0,Warsaw,100-999,100,protesters,"political behavior, process",ignore,0
44.43225,26.10626,Romania,2017,30,3,5,2017,3,5,2017,0,Bucharest,1000-1999,1000,anti corruption protesters,"political behavior, process",accomodation,0
44.43225,26.10626,Romania,2017,32,26,11,2017,26,11,2017,0,Bucharest,>10000,tens of thousands,anti corruption protesters,"political behavior, process",accomodation,0
55.75222,37.61556,Russia,2017,2,26,2,2017,26,2,2017,0,Moscow,>10000,15000,opposition supporters,removal of politician,ignore,0
55.75222,37.61556,Russia,2017,8,6,5,2017,6,5,2017,0,Moscow,5000-10000,thousands,nationalists; gays,removal of politician,arrests,0
55.75222,37.61556,Russia,2017,14,5,11,2017,5,11,2017,0,Moscow,100-999,200 arrested,Artpodgotovka,removal of politician,arrests,0
55.75222,37.61556,Russia,2017,11,23,7,2017,23,7,2017,0,Moscow,100-999,800,protesters,social restrictions,ignore,0
59.93863,30.31413,Russia,2017,7,1,5,2017,1,5,2017,0,St. Petersburg,50-99,50,gays,social restrictions,arrests,0
44.80401,20.46513,Serbia,2017,1,3,4,2017,3,4,2017,0,Belgrade,5000-10000,thousands,protesters,"political behavior, process",ignore,0
44.80401,20.46513,Serbia,2017,3,17,9,2017,17,9,2017,0,Belgrade,100-999,hundreds,gays,social restrictions,ignore,0
7.96472,-11.73833,Sierra Leone,2017,2,23,3,2017,23,3,2017,0,Bo,50-99,50+,students,labor wage dispute,crowd dispersal,0
8.48714,-13.2356,Sierra Leone,2017,1,9,1,2017,9,1,2017,0,Freetown,50-99,50+,Sierra Leone Peoples Party,"political behavior, process",ignore,0
1.28528,103.84528,Singapore,2017,1,11,3,2017,11,3,2017,0,Hong Lim Park,100-999,About 100 people,Protesters opposed to a forthcoming rise in water prices,"price increases, tax policy",ignore,0
1.28528,103.84528,Singapore,2017,2,15,7,2017,15,7,2017,0,Hong Lim Park,100-999,About 400,Protesters opposed to allegations of abuse of power by Prime Minister Lee Hsien Loong,removal of politician,ignore,0
48.14816,17.10674,Slovak Republic,2017,1,18,5,2017,18,5,2017,0,Bratislava,5000-10000,5000,protesters,"political behavior, process",ignore,0
-33.92584,18.42322,South Africa,2017,6,7,8,2017,7,8,2017,0,Cape Town,100-999,>100,Protesters organized by a coalition of more than 20 civil society organizations,"political behavior, process",ignore,0
-26.20227,28.04363,South Africa,2017,3,1,4,2017,1,4,2017,0,Johannesburg,100-999,>100,Protesters opposed to President Zuma for purging his cabinet of critics,"political behavior, process",ignore,0
-25.74486,28.18783,South Africa,2017,5,12,4,2017,12,4,2017,0,Pretoria,>10000,"Up to 100,000",South Africans from rival political parties that joined forces to demand that President Zuma step down,removal of politician,ignore,0
-25.74486,28.18783,South Africa,2017,1,24,2,2017,24,2,2017,1,Pretoria,50-99,50+,anti immigrants citizens,labor wage dispute,crowd dispersal,0
37.08157,127.16668,South Korea,2017,3,26,4,2017,26,4,2017,1,Seongju,100-999,Hundreds,Villagers against Thaad,"political behavior, process",crowd dispersal,0
41.38879,2.15899,Spain,2017,20,29,10,2017,29,10,2017,0,Barcelona,>10000,300000,protesters,"political behavior, process",ignore,0
41.38879,2.15899,Spain,2017,7,11,9,2017,11,9,2017,0,Barcelona,>10000,hundreds of thousands,Catalans,"political behavior, process",ignore,0
41.38879,2.15899,Spain,2017,11,30,9,2017,30,9,2017,0,Barcelona,1000-1999,1000,parents,"political behavior, process",ignore,0
41.38879,2.15899,Spain,2017,23,11,11,2017,11,11,2017,0,Barcelona,>10000,750000,Catalans,police brutality,ignore,0
41.38879,2.15899,Spain,2017,16,12,10,2017,12,10,2017,0,Barcelona,2000-4999,thousands,protesters,"political behavior, process",ignore,0
41.38879,2.15899,Spain,2017,13,1,10,2017,1,10,2017,1,Barcelona,2000-4999,2500,Catalans,"political behavior, process",crowd dispersal,0
41.38879,2.15899,Spain,2017,6,26,8,2017,26,8,2017,0,Barcelona,>10000,500000,human rights activists,"political behavior, process",ignore,0
41.38879,2.15899,Spain,2017,2,6,2,2017,6,2,2017,0,Barcelona,>10000,40000,pro independence demonstrators,"political behavior, process",ignore,0
41.38879,2.15899,Spain,2017,17,17,10,2017,17,10,2017,0,Barcelona,>10000,200000,Catalans,police brutality,ignore,0
41.38879,2.15899,Spain,2017,18,21,10,2017,21,10,2017,0,Barcelona,>10000,450000,Catalans,police brutality,ignore,0
41.38879,2.15899,Spain,2017,19,27,10,2017,27,10,2017,0,Barcelona,>10000,tens of thousands,Catalans,"political behavior, process",ignore,0
41.38879,2.15899,Spain,2017,3,18,2,2017,18,2,2017,0,"Barcelona, Spain",>10000,at least 160000,Casa Nostra Casa Vostra,"political behavior, process",ignore,0
41.38879,2.15899,Spain,2017,9,24,9,2017,24,9,2017,0,Barcelona; Catalonia,5000-10000,thousands,Catalans,"political behavior, process",ignore,0
41.38879,2.15899,Spain,2017,10,28,9,2017,28,9,2017,0,Barcelona; Catalonia,5000-10000,thousands,Catalans,"political behavior, process",ignore,0
41.38879,2.15899,Spain,2017,22,8,11,2017,8,11,2017,0,Barcelona; Catalonia,5000-10000,8000,Catalans,police brutality,ignore,0
43.26271,-2.92528,Spain,2017,1,14,1,2017,14,1,2017,0,"Bilbao, Spain",>10000,Tens of thousands,Basques,police brutality,ignore,0
41.38879,2.15899,Spain,2017,21,2,11,2017,2,11,2017,0,Catalonia,>10000,tens of thousands,Catalans,police brutality,ignore,0
41.38879,2.15899,Spain,2017,24,11,11,2017,11,11,2017,1,Catalonia,100-999,500,Catalans,social restrictions,crowd dispersal,0
40.4165,-3.70256,Spain,2017,5,1,7,2017,1,7,2017,0,Madrid,>10000,hundreds of thousands,gays,social restrictions,ignore,0
40.4165,-3.70256,Spain,2017,4,15,6,2017,15,6,2017,0,Madrid,5000-10000,thousands,human rights activists,"political behavior, process",ignore,0
57.70716,11.96679,Sweden,2017,2,30,9,2017,30,9,2017,0,Gothenburg,100-999,600,neo nazis: Nordic Resistance Movement,social restrictions,arrests,0
59.31502,18.07199,Sweden,2017,1,31,8,2017,31,8,2017,0,Medborgarplatsen,50-99,50,Ung i Sverige,"political behavior, process",ignore,0
25.04776,121.53185,Taiwan,2017,1,23,7,2017,23,7,2017,0,Taipei,>10000,>10000,Protesters opposed to attempts to limit the lighting of firecrackers and burning of incense and paper money during religious rites,social restrictions,ignore,0
-6,35,Tanzania,2017,1,19,10,2017,19,10,2017,0,Tanzania,50-99,50+,Tanzanian Albino Society,social restrictions,accomodation,0
-6,35,Tanzania,2017,2,15,11,2017,15,11,2017,0,Tanzania,1000-1999,1000+,Tanzanian Albino Society,social restrictions,ignore,0
16.44671,102.833,Thailand,2017,4,17,6,2017,17,6,2017,0,Khon Kaen,100-999,Around 200 protesters,The Northeastern Region Peoples Network for Monitoring Universal Health Coverage,"political behavior, process",ignore,0
6.12874,1.22154,Togo,2017,2,28,2,2017,28,2,2017,1,Lome,100-999,100s,taxi drivers,"price increases, tax policy",killings,0
6.12874,1.22154,Togo,2017,1,25,2,2017,25,2,2017,0,Lome,100-999,100s,rights groups,"political behavior, process",crowd dispersal,0
6.12874,1.22154,Togo,2017,3,11,3,2017,11,3,2017,0,Lome,2000-4999,1000s,Combat for Political Change,"price increases, tax policy",ignore,0
36.81897,10.16579,Tunisia,2017,5,12,6,2017,12,6,2017,0,Tunis,50-99,dozens,Mouch Bessif,social restrictions,ignore,0
36.81897,10.16579,Tunisia,2017,4,14,5,2017,14,5,2017,0,Tunis,2000-4999,thousands,protesters,"political behavior, process",ignore,0
39.91987,32.85427,Turkey,2017,6,14,9,2017,14,9,2017,0,Ankara,50-99,50,protesters,"political behavior, process",crowd dispersal,0
41.01384,28.94966,Turkey,2017,4,9,7,2017,9,7,2017,0,Istanbul,>10000,over a million,opposition,removal of politician,ignore,0
41.01384,28.94966,Turkey,2017,3,25,6,2017,25,6,2017,0,Istanbul,100-999,hundreds,gays,social restrictions,crowd dispersal,0
50.45466,30.5238,Ukraine,2017,3,17,12,2017,17,12,2017,1,Kiev,5000-10000,5000,opposition,removal of politician,crowd dispersal,0
50.45466,30.5238,Ukraine,2017,2,5,12,2017,5,12,2017,0,Kiev,50-99,50,protesters,police brutality,beatings,0
53.79391,-1.75206,United Kingdom,2017,5,3,2,2017,3,2,2017,0,Bradford,100-999,100,demonstrators in masks,"political behavior, process",ignore,0
51.55445,0.12529,United Kingdom,2017,16,25,6,2017,25,6,2017,1,East London,50-99,50+,Protesters opposed to man s death following contact with police,police brutality,crowd dispersal,0
51.55445,0.12529,United Kingdom,2017,13,7,5,2017,7,5,2017,0,East London,100-999,500 people,Protesters calling for more action against knife crime,"political behavior, process",ignore,0
55.86515,-4.25763,United Kingdom,2017,20,21,11,2017,21,11,2017,0,Glasgow,100-999,>100,Jordanhill Community Council,land farm issue,ignore,0
55.95316,-3.17132,United Kingdom,2017,21,23,11,2017,23,11,2017,0,Holyrood,50-99,50+,Fire Brigades Union Scotland,labor wage dispute,ignore,0
51.50853,-0.12574,United Kingdom,2017,6,4,2,2017,4,2,2017,0,London,2000-4999,1000s,demonstrators,"political behavior, process",ignore,0
51.50853,-0.12574,United Kingdom,2017,11,4,3,2017,4,3,2017,0,London,2000-4999,1000s,nurses,"political behavior, process",ignore,0
51.50853,-0.12574,United Kingdom,2017,14,16,6,2017,16,6,2017,1,London,50-99,50+,People demanding the government rehouse all Grenfell fire victims,"political behavior, process",crowd dispersal,0
51.51872,-0.1539,United Kingdom,2017,3,21,1,2017,21,1,2017,0,"London, Manchester",>10000,100000+,feminist groups,social restrictions,ignore,0
53.45,-2.23333,United Kingdom,2017,18,1,10,2017,1,10,2017,0,Manchester,>10000,"About 30,000",Protesters against Brexit,"political behavior, process",ignore,0
51.49971,-0.12496,United Kingdom,2017,9,20,2,2017,20,2,2017,0,Parliament London,2000-4999,1000s,EU migrants,"political behavior, process",ignore,0
51.505,-0.2211,United Kingdom,2017,15,21,6,2017,21,6,2017,0,"Shepherds Bush, west London",100-999,About 500 people,Protesters calling for the prime minister to resign,removal of politician,crowd dispersal,0
51.38948,-0.07656,United Kingdom,2017,2,3,1,2017,3,1,2017,0,South London,1000-1999,1500,servicement,"political behavior, process",ignore,0
10.48801,-66.87919,Venezuela,2017,20,4,8,2017,4,8,2017,0,Caracas,100-999,A few hundred people,Supporters of the opposition,"political behavior, process",crowd dispersal,0
-12.95867,28.63659,Zambia,2017,1,26,9,2017,26,9,2017,1,Ndola,50-99,50+,Protesters claiming that traffic police officers had caused the death of a vendor,police brutality,crowd dispersal,0
-16.80993,29.69247,Zimbabwe,2017,2,16,5,2017,16,5,2017,1,Karoi,50-99,50+,Protesters against the death of a woman hit by a car at which council workers had thrown spikes,police brutality,crowd dispersal,0
-17.82528,30.92639,Zimbabwe,2017,3,12,7,2017,12,7,2017,1,"Kuwadzana, Harare",50-99,50+,MDC T youths,"political behavior, process",ignore,0
-17.88333,30.7,Zimbabwe,2017,1,10,4,2017,10,4,2017,0,Norton,100-999,About 100,Protesters opposed to poor service delivery and corruption among both MDC T and Zanu PF councillors,removal of politician,ignore,0
-42.55798,-73.94676,Chile,2016,1,15,5,2016,17,5,2017,0,Chiloe Island,50-99,>50,fishermen,"political behavior, process",ignore,367
47.00556,28.8575,Moldova,2016,1,12,1,2016,24,4,2016,0,Chisinau,50-99,50+,Civic Platform DA  Dignity and Justice,"political behavior, process",ignore,103
14.6042,120.9822,Philippines,2016,2,14,8,2016,25,11,2016,0,Manila,2000-4999,"About 2,000 people",Protesters opposed to Duterte s plans to move late dictator Ferdinand Marcos s remains to the National Heroes  Cemetery; Marcos era victims of torture and imprisonment as well as relatives of victims of extrajudicial killings; a group representing almost 40 anti Marcos organisations; male students from the University of the Philippines,"political behavior, process",ignore,103
17.06542,-96.72365,Mexico,2016,3,18,6,2016,31,8,2016,1,Oaxaca,2000-4999,thousands,Teacher s Union,"political behavior, process",arrests,74
27.70169,85.3206,Nepal,2016,2,14,5,2016,15,7,2016,1,Kathmandu,100-999,About 500 demonstrators,"Ethnic Madhesi protesters, Federal Alliance","political behavior, process",crowd dispersal,62
-22.90642,-43.18223,Brazil,2016,10,15,5,2016,13,7,2016,0,Rio de Janeiro,50-99,more than a dozen schools,teachers and students,labor wage dispute,ignore,59
-33.45694,-70.64827,Chile,2016,3,15,7,2016,15,8,2016,0,Santiago,>10000,hundreds of thousands,workers,labor wage dispute,ignore,31
52,-56,Canada,2016,10,13,10,2016,11,11,2016,0,Labrador,100-999,busloads,indigenous residents,"political behavior, process",arrests,29
-9.47723,147.15089,Papua New Guinea,2016,1,15,5,2016,9,6,2016,1,Port Moresby,1000-1999,About 1000,University students,removal of politician,shootings,25
-37.47793,-73.34495,Chile,2016,6,6,12,2016,29,12,2016,0,Curanilahue,50-99,75,miners,labor wage dispute,ignore,23
43.70011,-79.4163,Canada,2016,4,20,3,2016,4,4,2016,0,"Toronto, Ontario",100-999,hundreds,Black Lives Matter,police brutality,crowd dispersal,15
41.99646,21.43141,Macedonia,2016,1,1,1,2016,15,1,2016,0,Skopje,>10000,tens of thousands,opposition supporters,removal of politician,accomodation,14
54.20543,-0.80655,United Kingdom,2016,35,20,12,2016,2,1,2017,0,Kirby Misperton,100-999,100s,anti fracking protesters,"political behavior, process",ignore,13
33.34058,44.40088,Iraq,2016,2,20,3,2016,29,3,2016,0,Baghdad,2000-4999,1000s,Sadr supporters,"political behavior, process",accomodation,9
52.03171,113.50087,Russia,2016,1,15,1,2016,23,1,2016,0,"Chita, Siberia",50-99,>50,doctors; nurses; workers,labor wage dispute,ignore,8
50.3691,119.1012,Russia,2016,2,15,1,2016,23,1,2016,0,Priargunsk,50-99,>50,teachers,labor wage dispute,ignore,8
44,133,Russia,2016,3,15,1,2016,23,1,2016,0,Primorye,100-999,at least 500,workers,labor wage dispute,ignore,8
23.11667,113.25,China,2016,5,17,2,2016,24,2,2016,0,Guangzhou,100-999,Hundreds of workers,Workers at a stainless steel factory,labor wage dispute,crowd dispersal,7
45.04484,38.97603,Russia,2016,4,17,1,2016,23,1,2016,0,Krasnodar,100-999,hundreds,Lorry Drivers,"price increases, tax policy",ignore,6
30.06263,31.24967,Egypt,2016,6,1,5,2016,6,5,2016,0,Cairo,2000-4999,more than 2000,journalists,"political behavior, process",arrests,5
-17.48849,-67.44373,Bolivia,2016,2,22,8,2016,26,8,2016,1,Panduro,100-999,over 100 arrested,National Federation of Mining Cooperatives of Bolivia,labor wage dispute,crowd dispersal,4
-12.04318,-77.02824,Peru,2016,3,15,11,2016,19,11,2016,0,Lima,2000-4999,thousands,workers,labor wage dispute,ignore,4
25.38327,97.39637,Myanmar,2016,5,3,10,2016,6,10,2016,0,Myitkyina,2000-4999,Thousands,"Kachin Development Network Group, protesters calling for the Burmese army to withdraw its troops from the Kachin region","political behavior, process",ignore,3
6.19824,6.73187,Nigeria,2016,37,18,5,2016,21,5,2016,0,Asaba,50-99,50+,Nigeria Labour Congress,"price increases, tax policy",ignore,3
10.48801,-66.87919,Venezuela,2016,3,15,5,2016,18,5,2016,0,Caracas,5000-10000,several thousand,opposition supporters,removal of politician,crowd dispersal,3
6.73156,-1.6137,Ghana,2016,3,27,2,2016,29,2,2016,1,Tafo,50-99,50+,Muslim community,"political behavior, process",arrests,2
42.67272,21.16688,Kosovo,2016,2,17,2,2016,19,2,2016,1,Pristina,5000-10000,thousands,opposition supporters,removal of politician,crowd dispersal,2
29.36972,47.97833,Kuwait,2016,1,17,4,2016,19,4,2016,0,Kuwait City,100-999,>100,Kuwait Oil Company Workers  Union,labor wage dispute,accomodation,2
-15.03748,40.73347,Mozambique,2016,1,20,1,2016,22,1,2016,1,Palmeiras,50-99,50+,community members,"political behavior, process",shootings,2
-22.611,17.05837,Namibia,2016,16,17,10,2016,19,10,2016,0,University of Namibia,50-99,50+,students,"price increases, tax policy",ignore,2
-26.20227,28.04363,South Africa,2016,4,26,4,2016,28,4,2016,0,Johannesburg,50-99,50+,the poor,"political behavior, process",ignore,2
13.76483,100.53822,Thailand,2016,2,19,4,2016,21,4,2016,0,"Victory Monument, Bangkok",50-99,About 50 protesters,A political group calling themselves Resistant Citizen,"political behavior, process",arrests,2
5.9597,10.14597,Cameroon,2016,5,21,11,2016,22,11,2016,1,Bamenda,100-999,100+,English speaking minority,"political behavior, process",arrests,1
22.27832,114.17469,China,2016,24,6,11,2016,7,11,2016,0,Hong Kong,>10000,"13,000 people",Protesters against the mainland s intervention in Hong Kong s semi democratic parliament,"political behavior, process",crowd dispersal,1
37.66667,112.25,China,2016,6,17,2,2016,18,2,2016,1,Shanxi province,5000-10000,"Estimated number of protesters at 10,000",Residents,"political behavior, process",accomodation,1
52.52437,13.41053,Germany,2016,35,9,7,2016,10,7,2016,1,Berlin,2000-4999,3500,anti fascist and far left movement,"political behavior, process",crowd dispersal,1
33.30847,44.39395,Iraq,2016,5,30,4,2016,1,5,2016,1,Green Zone,100-999,100s,protesters,"political behavior, process",ignore,1
33.72148,73.04329,Pakistan,2016,2,27,3,2016,28,3,2016,1,Islamabad,>10000,"As many as 25,000 protesters","Protesters demanding that authorities implement Sharia, or Islamic law.","political behavior, process",crowd dispersal,1
50.45466,30.5238,Ukraine,2016,1,20,2,2016,21,2,2016,0,Kiev,100-999,several hundred,Revolutionary Right Forces,removal of politician,ignore,1
34.52813,69.17233,Afghanistan,2016,2,16,5,2016,16,5,2016,1,Kabul,>10000,tens of thousands,ethnic Hazaras,land farm issue,crowd dispersal,0
34.52813,69.17233,Afghanistan,2016,4,22,9,2016,22,9,2016,0,Kabul,50-99,50,residents,"political behavior, process",ignore,0
34.52813,69.17233,Afghanistan,2016,3,23,7,2016,23,7,2016,0,Kabul,5000-10000,thousands,ethnic Hazaras,land farm issue,ignore,0
36.70904,67.11087,Afghanistan,2016,1,22,3,2016,22,3,2016,0,Mazar i Sharif,100-999,hundreds,protesters,"political behavior, process",ignore,0
-9.01212,13.38437,Angola,2016,1,10,8,2016,10,8,2016,0,Zango,50-99,50+,community members,land farm issue,shootings,0
40.18111,44.51361,Armenia,2016,1,18,7,2016,18,7,2016,0,Yerevan,1000-1999,1500+,protesters,"political behavior, process",ignore,0
40.18111,44.51361,Armenia,2016,2,20,7,2016,20,7,2016,1,Yerevan,1000-1999,1000+,protesters,"political behavior, process",crowd dispersal,0
40.18111,44.51361,Armenia,2016,3,28,7,2016,28,7,2016,1,Yerevan,2000-4999,1000s,protesters,"political behavior, process",arrests,0
40.18111,44.51361,Armenia,2016,4,29,7,2016,29,7,2016,1,Yerevan,2000-4999,1000s,protesters,"political behavior, process",crowd dispersal,0
40.37767,49.89201,Azerbaijan,2016,2,11,9,2016,11,9,2016,0,Baku,2000-4999,2500,National Council of Democratic Forces,"political behavior, process",ignore,0
26.22787,50.58565,Bahrain,2016,1,20,6,2016,20,6,2016,0,Manama,50-99,>50,Shiites,"political behavior, process",ignore,0
50.85045,4.34878,Belgium,2016,2,28,3,2016,28,3,2016,0,Brussels,100-999,100s,neo Nazi thugs,"political behavior, process",crowd dispersal,0
50.85045,4.34878,Belgium,2016,5,24,5,2016,24,5,2016,1,Brussels,>10000,50000,anti austerity protesters,"political behavior, process",crowd dispersal,0
50.85045,4.34878,Belgium,2016,1,15,2,2016,15,2,2016,0,Brussels,5000-10000,5000,steel workers,"political behavior, process",ignore,0
50.85045,4.34878,Belgium,2016,3,2,4,2016,2,4,2016,1,Brussels,50-99,50+,Flemish,"political behavior, process",crowd dispersal,0
50.8499,4.31248,Belgium,2016,4,4,4,2016,4,4,2016,1,Molenbeek,100-999,100s,far right protesters,"political behavior, process",arrests,0
6.36536,2.41833,Benin,2016,1,15,7,2016,15,7,2016,0,Cotonou,50-99,50+,students,"political behavior, process",arrests,0
-10,-55,Brazil,2016,8,3,5,2016,3,5,2016,0,Brasilia,50-99,scores,pro government supporters,"political behavior, process",ignore,0
-22.96898,-43.18563,Brazil,2016,14,29,7,2016,29,7,2016,0,"Copacabana, Rio de Janeiro",100-999,hundreds,anti government,removal of politician,ignore,0
-22.90642,-43.18223,Brazil,2016,20,8,11,2016,8,11,2016,1,Rio de Janeiro,2000-4999,"About 2,000",anti austerity demonstrators,labor wage dispute,crowd dispersal,0
-22.90642,-43.18223,Brazil,2016,22,6,12,2016,6,12,2016,1,Rio de Janeiro,50-99,>50,police; firefighters; teachers,labor wage dispute,crowd dispersal,0
41.93333,25.9,Bulgaria,2016,1,24,11,2016,24,11,2016,1,Harmanli,100-999,400+,migrants,"political behavior, process",crowd dispersal,0
11.56245,104.91601,Cambodia,2016,3,10,10,2016,10,10,2016,0,Phnom Penh,50-99,>50,Land rights protesters,land farm issue,crowd dispersal,0
5.9597,10.14597,Cameroon,2016,3,23,6,2016,23,6,2016,0,Bamenda,50-99,50+,lawyers,"political behavior, process",ignore,0
5.9597,10.14597,Cameroon,2016,4,8,11,2016,8,11,2016,0,Bamenda,100-999,500+,lawyers,"political behavior, process",crowd dispersal,0
5.9597,10.14597,Cameroon,2016,6,8,12,2016,8,12,2016,1,Bamenda,50-99,60+,English speaking minority,"political behavior, process",arrests,0
4.04827,9.70428,Cameroon,2016,1,15,3,2016,15,3,2016,0,Douala,50-99,50+,community members,"political behavior, process",ignore,0
3.86667,11.51667,Cameroon,2016,2,29,3,2016,29,3,2016,0,Yaounde,50-99,60+,opposition,"political behavior, process",arrests,0
43.70011,-79.4163,Canada,2016,7,14,4,2016,14,4,2016,0,Toronto,50-99,a group,aboriginal activists,"political behavior, process",ignore,0
43.70011,-79.4163,Canada,2016,8,23,4,2016,23,4,2016,0,Toronto,100-999,about 300,Concerned Ontario Doctors,"political behavior, process",ignore,0
43.70011,-79.4163,Canada,2016,5,24,3,2016,24,3,2016,0,"Toronto, Ontario",50-99,dozens,women,"political behavior, process",arrests,0
43.70011,-79.4163,Canada,2016,3,25,2,2016,25,2,2016,0,"Toronto, Ontario",100-999,more than 200,Canadian Union of Public Employees,labor wage dispute,ignore,0
8.57437,16.07722,Chad,2016,3,11,3,2016,11,3,2016,0,Moundou,100-999,100s,students,labor wage dispute,arrests,0
12.10672,15.0444,Chad,2016,1,15,2,2016,15,2,2016,1,N Djamena,100-999,100s,youth,"political behavior, process",crowd dispersal,0
12.10672,15.0444,Chad,2016,2,22,2,2016,22,2,2016,1,N Djamena,50-99,50+,youth,"political behavior, process",shootings,0
12.10672,15.0444,Chad,2016,4,7,4,2016,7,4,2016,0,N Djamena,100-999,100s,anti government activists,"political behavior, process",shootings,0
12.10672,15.0444,Chad,2016,5,7,8,2016,7,8,2016,1,N Djamena,50-99,50+,opposition,"political behavior, process",crowd dispersal,0
12.10672,15.0444,Chad,2016,6,17,11,2016,17,11,2016,0,N Djamena,50-99,50+,opposition,"political behavior, process",arrests,0
-33.45694,-70.64827,Chile,2016,4,1,9,2016,1,9,2016,0,Santiago,2000-4999,2000,Movimiento por la Recuperaci n del Agua y la Vida,land farm issue,ignore,0
-33.036,-71.62963,Chile,2016,2,21,5,2016,21,5,2016,1,Valparaiso,100-999,>100,protesters,"political behavior, process",crowd dispersal,0
39.9075,116.39723,China,2016,25,8,11,2016,8,11,2016,0,Beijing,1000-1999,"March organiser and legal-sector lawmaker Dennis Kwok, said more than 2,000 people joined the protest. Police put the turnout at 1,700.",Lawyers,"political behavior, process",crowd dispersal,0
22.27832,114.17469,China,2016,1,1,1,2016,1,1,2016,0,Hong Kong,2000-4999,"About 4,000 people",An alliance of 45 grass roots groups,social restrictions,ignore,0
22.27832,114.17469,China,2016,21,1,7,2016,1,7,2016,0,Hong Kong,>10000,"The Civil Human Rights Front said 110,000 people; The Hong Kong police said about 20,000",Civil Human Rights Front,"political behavior, process",ignore,0
22.27832,114.17469,China,2016,2,3,1,2016,3,1,2016,0,Hong Kong,100-999,"The organisers said more than 3,000 people; police said the turnout was 830 at its peak",20 organisations from various universities and concern groups,"political behavior, process",ignore,0
22.27832,114.17469,China,2016,3,10,1,2016,10,1,2016,0,Hong Kong,5000-10000,"About 6,000 people",Protesters demanding the release of five booksellers,"political behavior, process",ignore,0
22.27832,114.17469,China,2016,8,13,3,2016,13,3,2016,0,Hong Kong,2000-4999,"Over 2,000 construction workers",construction workers,"political behavior, process",accomodation,0
22.28435,114.07712,China,2016,19,26,6,2016,26,6,2016,0,Kau Yi Chau,50-99,>50,Activists from nine groups concerned about the impact on the environment,"political behavior, process",ignore,0
-11.70216,43.25506,Comoros,2016,1,13,3,2016,13,3,2016,1,Moroni,50-99,50+,opposition supporters,"political behavior, process",ignore,0
-4.26613,15.28318,Congo Brazzaville,2016,2,3,11,2016,3,11,2016,0,Brazzaville,100-999,300,protesters,"political behavior, process",ignore,0
-2.5,23.5,Congo Kinshasa,2016,3,19,9,2016,19,9,2016,1,Kinshasa,50-99,50+,opposition,"political behavior, process",arrests,0
-2.5,23.5,Congo Kinshasa,2016,2,15,5,2016,15,5,2016,0,Kinshasa,2000-4999,1000s,opposition,"political behavior, process",arrests,0
23.13302,-82.38304,Cuba,2016,2,10,1,2016,10,1,2016,0,Havana,50-99,dozens,Ladies in White,"political behavior, process",ignore,0
23.13302,-82.38304,Cuba,2016,1,3,1,2016,3,1,2016,0,Havana,50-99,dozens,Ladies in White,"political behavior, process",ignore,0
23.13302,-82.38304,Cuba,2016,43,23,10,2016,23,10,2016,0,Havana,50-99,dozens,ladies in white,"political behavior, process",ignore,0
23.13302,-82.38304,Cuba,2016,3,17,1,2016,17,1,2016,0,Havana,50-99,dozens,Ladies in White,"political behavior, process",ignore,0
23.13302,-82.38304,Cuba,2016,4,24,1,2016,24,1,2016,0,Havana,50-99,dozens,Ladies in White,"political behavior, process",ignore,0
23.13302,-82.38304,Cuba,2016,5,31,1,2016,31,1,2016,0,Havana,50-99,dozens,Ladies in White,"political behavior, process",ignore,0
23.13302,-82.38304,Cuba,2016,6,7,2,2016,7,2,2016,0,Havana,50-99,dozens,Ladies in White,"political behavior, process",ignore,0
23.13302,-82.38304,Cuba,2016,7,14,2,2016,14,2,2016,0,Havana,50-99,dozens,Ladies in White,"political behavior, process",ignore,0
23.13302,-82.38304,Cuba,2016,8,21,2,2016,21,2,2016,0,Havana,50-99,dozens,Ladies in White,"political behavior, process",ignore,0
23.13302,-82.38304,Cuba,2016,9,28,2,2016,28,2,2016,0,Havana,50-99,dozens,Ladies in White,"political behavior, process",ignore,0
23.13302,-82.38304,Cuba,2016,10,6,3,2016,6,3,2016,0,Havana,50-99,dozens,Ladies in White,"political behavior, process",ignore,0
23.13302,-82.38304,Cuba,2016,11,13,3,2016,13,3,2016,0,Havana,50-99,dozens,Ladies in White,"political behavior, process",ignore,0
23.13302,-82.38304,Cuba,2016,13,27,3,2016,27,3,2016,0,Havana,50-99,dozens,Ladies in White,"political behavior, process",ignore,0
23.13302,-82.38304,Cuba,2016,14,3,4,2016,3,4,2016,0,Havana,50-99,dozens,Ladies in White,"political behavior, process",ignore,0
23.13302,-82.38304,Cuba,2016,15,10,4,2016,10,4,2016,0,Havana,50-99,dozens,Ladies in White,"political behavior, process",ignore,0
23.13302,-82.38304,Cuba,2016,16,17,4,2016,17,4,2016,0,Havana,50-99,dozens,Ladies in White,"political behavior, process",ignore,0
23.13302,-82.38304,Cuba,2016,17,24,4,2016,24,4,2016,0,Havana,50-99,dozens,Ladies in White,"political behavior, process",ignore,0
23.13302,-82.38304,Cuba,2016,18,1,5,2016,1,5,2016,0,Havana,50-99,dozens,Ladies in White,"political behavior, process",beatings,0
23.13302,-82.38304,Cuba,2016,19,8,5,2016,8,5,2016,0,Havana,50-99,dozens,Ladies in White,"political behavior, process",ignore,0
23.13302,-82.38304,Cuba,2016,20,15,5,2016,15,5,2016,0,Havana,50-99,dozens,Ladies in white,"political behavior, process",ignore,0
23.13302,-82.38304,Cuba,2016,21,22,5,2016,22,5,2016,0,Havana,50-99,dozens,ladies in white,"political behavior, process",ignore,0
23.13302,-82.38304,Cuba,2016,22,29,5,2016,29,5,2016,0,Havana,50-99,dozens,ladies in white,"political behavior, process",ignore,0
23.13302,-82.38304,Cuba,2016,23,5,6,2016,5,6,2016,0,Havana,50-99,dozens,ladies in white,"political behavior, process",ignore,0
23.13302,-82.38304,Cuba,2016,24,12,6,2016,12,6,2016,0,Havana,50-99,dozens,Ladies in White,"political behavior, process",ignore,0
23.13302,-82.38304,Cuba,2016,25,19,6,2016,19,6,2016,0,Havana,50-99,dozens,Ladies in White,"political behavior, process",ignore,0
23.13302,-82.38304,Cuba,2016,26,26,6,2016,26,6,2016,0,Havana,50-99,dozens,Ladies in White,"political behavior, process",ignore,0
23.13302,-82.38304,Cuba,2016,27,3,7,2016,3,7,2016,0,Havana,50-99,dozens,Ladies in White,"political behavior, process",ignore,0
23.13302,-82.38304,Cuba,2016,28,10,7,2016,10,7,2016,0,Havana,50-99,dozens,Ladies in white,"political behavior, process",ignore,0
23.13302,-82.38304,Cuba,2016,29,17,7,2016,17,7,2016,0,Havana,50-99,dozens,ladies in white,"political behavior, process",ignore,0
23.13302,-82.38304,Cuba,2016,30,24,7,2016,24,7,2016,0,Havana,50-99,dozens,ladies in white,"political behavior, process",ignore,0
23.13302,-82.38304,Cuba,2016,31,31,7,2016,31,7,2016,0,Havana,50-99,dozens,ladies in white,"political behavior, process",ignore,0
23.13302,-82.38304,Cuba,2016,32,7,8,2016,7,8,2016,0,Havana,50-99,dozens,ladies in white,"political behavior, process",ignore,0
23.13302,-82.38304,Cuba,2016,33,14,8,2016,14,8,2016,0,Havana,50-99,dozens,ladies in white,"political behavior, process",ignore,0
23.13302,-82.38304,Cuba,2016,34,21,8,2016,21,8,2016,0,Havana,50-99,dozens,ladies in white,"political behavior, process",ignore,0
23.13302,-82.38304,Cuba,2016,35,28,8,2016,28,8,2016,0,Havana,50-99,dozens,ladies in white,"political behavior, process",ignore,0
23.13302,-82.38304,Cuba,2016,36,4,9,2016,4,9,2016,0,Havana,50-99,dozens,ladies in white,"political behavior, process",ignore,0
23.13302,-82.38304,Cuba,2016,37,11,9,2016,11,9,2016,0,Havana,50-99,dozens,ladies in white,"political behavior, process",ignore,0
23.13302,-82.38304,Cuba,2016,38,18,9,2016,18,9,2016,0,Havana,50-99,dozens,ladies in white,"political behavior, process",ignore,0
23.13302,-82.38304,Cuba,2016,39,25,9,2016,25,9,2016,0,Havana,50-99,dozens,ladies in white,"political behavior, process",ignore,0
23.13302,-82.38304,Cuba,2016,40,2,10,2016,2,10,2016,0,Havana,50-99,dozens,ladies in white,"political behavior, process",ignore,0
23.13302,-82.38304,Cuba,2016,41,9,10,2016,9,10,2016,0,Havana,50-99,dozens,ladies in white,"political behavior, process",ignore,0
23.13302,-82.38304,Cuba,2016,42,16,10,2016,16,10,2016,0,Havana,50-99,dozens,ladies in white,"political behavior, process",ignore,0
23.13302,-82.38304,Cuba,2016,47,20,11,2016,20,11,2016,0,Havana,50-99,dozens,ladies in white,"political behavior, process",ignore,0
23.13302,-82.38304,Cuba,2016,44,30,10,2016,30,10,2016,0,Havana,50-99,dozens,ladies in white,"political behavior, process",ignore,0
23.13302,-82.38304,Cuba,2016,45,6,11,2016,6,11,2016,0,Havana,50-99,dozens,ladies in white,"political behavior, process",ignore,0
23.13302,-82.38304,Cuba,2016,46,13,11,2016,13,11,2016,0,Havana,50-99,dozens,ladies in white,"political behavior, process",ignore,0
23.13302,-82.38304,Cuba,2016,51,18,12,2016,18,12,2016,0,Havana,50-99,dozens,ladies in white,"political behavior, process",ignore,0
23.13302,-82.38304,Cuba,2016,48,27,11,2016,27,11,2016,0,Havana,50-99,dozens,ladies in white,"political behavior, process",ignore,0
23.13302,-82.38304,Cuba,2016,49,4,12,2016,4,12,2016,0,Havana,50-99,dozens,ladies in white,"political behavior, process",ignore,0
23.13302,-82.38304,Cuba,2016,50,11,12,2016,11,12,2016,0,Havana,50-99,dozens,ladies in white,"political behavior, process",ignore,0
23.13302,-82.38304,Cuba,2016,52,19,12,2016,19,12,2016,0,Havana,50-99,dozens,dissidents opposition,"political behavior, process",arrests,0
23.13302,-82.38304,Cuba,2016,53,25,12,2016,25,12,2016,0,Havana,50-99,dozens,ladies in white,"political behavior, process",ignore,0
30.06263,31.24967,Egypt,2016,2,12,2,2016,12,2,2016,0,Cairo,>10000,10000,Egyptian Medical Syndicate; doctors,police brutality,ignore,0
30.06263,31.24967,Egypt,2016,3,15,4,2016,15,4,2016,0,Cairo,1000-1999,more than 1000,anti government activists,"political behavior, process",arrests,0
30.06263,31.24967,Egypt,2016,4,25,4,2016,25,4,2016,0,Cairo,100-999,hundreds,activists,"political behavior, process",arrests,0
30.06263,31.24967,Egypt,2016,5,1,5,2016,1,5,2016,0,Cairo,100-999,650,Workers union,"political behavior, process",crowd dispersal,0
30.00737,31.23927,Egypt,2016,1,25,1,2016,25,1,2016,0,Giza; Cairo,50-99,few dozen,Muslim Brotherhood,"political behavior, process",crowd dispersal,0
7.6,38.71667,Ethiopia,2016,4,9,10,2016,9,10,2016,1,Lake Langano,50-99,50+,community members,land farm issue,ignore,0
8.55,39.26667,Ethiopia,2016,3,7,10,2016,7,10,2016,1,Oromia region,50-99,50+,community members,land farm issue,ignore,0
60.16952,24.93545,Finland,2016,2,10,9,2016,10,9,2016,1,Helsinki,50-99,50+,Finnish Resistance Movement,"political behavior, process",ignore,0
60.16952,24.93545,Finland,2016,3,24,9,2016,24,9,2016,0,Helsinki,>10000,10000s,anti Nazi protesters,"political behavior, process",ignore,0
60.16952,24.93545,Finland,2016,4,24,9,2016,24,9,2016,0,Helsinki,50-99,50+,anti refugee protesters,"political behavior, process",ignore,0
61.49911,23.78712,Finland,2016,1,28,1,2016,28,1,2016,0,Tampere,50-99,50+,far right protesters,"political behavior, process",ignore,0
44.25,2.5,France,2016,8,17,2,2016,17,2,2016,0,Aveyron,50-99,50+,farmers,"price increases, tax policy",accomodation,0
44.84044,-0.5805,France,2016,7,15,2,2016,15,2,2016,0,Bordeaux,100-999,100s,locals,"political behavior, process",accomodation,0
50.95194,1.85635,France,2016,6,6,2,2016,6,2,2016,1,Calais,100-999,150,PEGIDA,"political behavior, process",arrests,0
50.95194,1.85635,France,2016,41,23,10,2016,23,10,2016,1,Calais,50-99,50+,migrants,"political behavior, process",ignore,0
50.95194,1.85635,France,2016,45,26,10,2016,26,10,2016,1,Calais,50-99,50+,migrants,"political behavior, process",ignore,0
50.95194,1.85635,France,2016,12,2,3,2016,2,3,2016,1,Calais,50-99,50+,migrants,"political behavior, process",crowd dispersal,0
50.95194,1.85635,France,2016,11,1,3,2016,1,3,2016,1,Calais,50-99,50+,migrants,"political behavior, process",crowd dispersal,0
50.95194,1.85635,France,2016,2,23,1,2016,23,1,2016,1,Calais,2000-4999,2000,demonstrators and migrants,"political behavior, process",crowd dispersal,0
50.95194,1.85635,France,2016,9,24,2,2016,24,2,2016,1,Calais,50-99,50+,migrants,"political behavior, process",crowd dispersal,0
50.95194,1.85635,France,2016,10,28,2,2016,28,2,2016,1,Calais,50-99,50+,migrants,"political behavior, process",crowd dispersal,0
50.95194,1.85635,France,2016,36,5,9,2016,5,9,2016,0,Calais,100-999,100s,truck drivers,"political behavior, process",ignore,0
50.21892,2.90861,France,2016,42,24,10,2016,24,10,2016,0,Croisilles,100-999,100,far right protesters,"political behavior, process",ignore,0
47.31824,-2.07538,France,2016,27,27,5,2016,27,5,2016,1,Donges,100-999,200,union members,"political behavior, process",ignore,0
50.3008,3.3927,France,2016,25,25,5,2016,25,5,2016,1,Douchy les Mines,50-99,50+,picketers,"political behavior, process",crowd dispersal,0
48.62942,2.10264,France,2016,37,5,9,2016,5,9,2016,0,Forges les Bains,100-999,100,locals,"political behavior, process",ignore,0
43.72531,5.54796,France,2016,48,1,12,2016,1,12,2016,0,La Tour d Aigues,100-999,300,pro refugee protesters,"political behavior, process",crowd dispersal,0
43.72531,5.54796,France,2016,49,1,12,2016,1,12,2016,0,La Tour d Aigues,100-999,150,National Front,"political behavior, process",crowd dispersal,0
43.9502,0.20217,France,2016,29,6,6,2016,6,6,2016,1,Montreal,50-99,50+,far left CGT union,"political behavior, process",ignore,0
47.21725,-1.55336,France,2016,28,2,6,2016,2,6,2016,0,Nantes,50-99,50+,protesters,"political behavior, process",crowd dispersal,0
48.85341,2.3488,France,2016,30,8,6,2016,8,6,2016,0,Paris,2000-4999,1000s,"protesters, CGT union","political behavior, process",ignore,0
48.85341,2.3488,France,2016,32,22,6,2016,22,6,2016,0,Paris,50-99,50+,trade unionists,"political behavior, process",ignore,0
48.85341,2.3488,France,2016,47,31,10,2016,31,10,2016,0,Paris,50-99,50+,demonstrators,"political behavior, process",ignore,0
48.85341,2.3488,France,2016,1,15,1,2016,15,1,2016,0,Paris,100-999,100s,jews,"political behavior, process",ignore,0
48.85341,2.3488,France,2016,23,18,5,2016,18,5,2016,1,Paris,50-99,50+,protesters,police brutality,ignore,0
48.85341,2.3488,France,2016,38,15,9,2016,15,9,2016,0,Paris,100-999,100s,protesters,"political behavior, process",crowd dispersal,0
48.85341,2.3488,France,2016,5,28,1,2016,28,1,2016,0,Paris,2000-4999,1000s,protesters,"political behavior, process",ignore,0
48.85341,2.3488,France,2016,22,18,5,2016,18,5,2016,0,Paris,100-999,100s,officers,"political behavior, process",ignore,0
48.85341,2.3488,France,2016,33,28,6,2016,28,6,2016,0,Paris,>10000,20000-60000,trade unionists,"political behavior, process",crowd dispersal,0
48.85341,2.3488,France,2016,34,23,7,2016,23,7,2016,0,Paris,100-999,600,Black lives matter,police brutality,ignore,0
48.85341,2.3488,France,2016,4,26,1,2016,26,1,2016,1,Paris,2000-4999,2000,taxi drivers,"political behavior, process",crowd dispersal,0
48.85341,2.3488,France,2016,20,17,5,2016,17,5,2016,1,Paris,100-999,200,anarchists,"political behavior, process",crowd dispersal,0
48.85341,2.3488,France,2016,35,1,9,2016,1,9,2016,0,Paris,>10000,60000,demonstrators of chines or other Asian origin,"political behavior, process",ignore,0
48.84821,2.32778,France,2016,16,5,4,2016,5,4,2016,1,"Paris, Rennes",100-999,100s,unions,labor wage dispute,arrests,0
43.22411,6.14536,France,2016,43,25,10,2016,25,10,2016,0,Pierrefeu du Var,50-99,50+,pro migrant group,"political behavior, process",ignore,0
43.22411,6.14536,France,2016,44,25,10,2016,25,10,2016,0,Pierrefeu du Var,50-99,50+,anti migrant group,"political behavior, process",ignore,0
43.89551,3.73618,France,2016,46,27,10,2016,27,10,2016,0,SAINT BAUZILLE DE PUTOIS,50-99,50+,locals,"political behavior, process",ignore,0
0.39241,9.45356,Gabon,2016,1,23,7,2016,23,7,2016,0,Libreville,100-999,100s,opposition supporters,"political behavior, process",crowd dispersal,0
13.43833,-16.67806,Gambia,2016,1,14,4,2016,14,4,2016,0,Serrekunda,50-99,50+,UDP,"political behavior, process",arrests,0
13.43833,-16.67806,Gambia,2016,2,16,4,2016,16,4,2016,1,Serrekunda,50-99,50+,UDP,police brutality,arrests,0
43.00697,40.9893,Georgia,2016,2,5,7,2016,5,7,2016,1,Sukhum  Abkhazia,1000-1999,1000,opposition supporters,"political behavior, process",crowd dispersal,0
43.00697,40.9893,Georgia,2016,4,15,12,2016,15,12,2016,0,Sukhum Abkhazia,1000-1999,1000,opposition supporters,removal of politician,ignore,0
43.00697,40.9893,Georgia,2016,3,15,12,2016,15,12,2016,0,SUKHUM Abkhazia,50-99,50+,opposition,removal of politician,ignore,0
41.69411,44.83368,Georgia,2016,1,6,3,2016,6,3,2016,0,Tbilisi,2000-4999,1000s,protesters,"political behavior, process",ignore,0
52.52437,13.41053,Germany,2016,33,2,7,2016,2,7,2016,0,Berlin,100-999,260-500,al Quds day demonstrators,"political behavior, process",ignore,0
52.52437,13.41053,Germany,2016,27,28,5,2016,28,5,2016,0,Berlin,2000-4999,2000,Turks,"political behavior, process",ignore,0
50.93333,6.95,Germany,2016,4,9,1,2016,9,1,2016,1,Cologne,1000-1999,1700,PEGIDA,removal of politician,crowd dispersal,0
50.93333,6.95,Germany,2016,3,9,1,2016,9,1,2016,1,Cologne,1000-1999,1300,women,social restrictions,crowd dispersal,0
51.05089,13.73832,Germany,2016,44,5,9,2016,5,9,2016,0,Dresden,2000-4999,1000s,PEGIDA,"political behavior, process",ignore,0
51.05089,13.73832,Germany,2016,9,1,2,2016,1,2,2016,0,Dresden,2000-4999,1000s,PEGIDA,"political behavior, process",ignore,0
51.05089,13.73832,Germany,2016,11,15,2,2016,15,2,2016,0,Dresden,2000-4999,1000s,PEGIDA,"political behavior, process",ignore,0
51.05089,13.73832,Germany,2016,12,22,2,2016,22,2,2016,0,Dresden,2000-4999,1000s,PEGIDA,"political behavior, process",ignore,0
51.05089,13.73832,Germany,2016,1,4,1,2016,4,1,2016,0,Dresden,2000-4999,1000s,Patriotic Europeans against the Islamization of the West,"political behavior, process",ignore,0
51.05089,13.73832,Germany,2016,20,18,4,2016,18,4,2016,0,Dresden,2000-4999,1000s,PEGIDA,"political behavior, process",ignore,0
51.05089,13.73832,Germany,2016,17,28,3,2016,28,3,2016,0,Dresden,2000-4999,1000s,PEGIDA,"political behavior, process",ignore,0
51.05089,13.73832,Germany,2016,23,2,5,2016,2,5,2016,0,Dresden,2000-4999,1000s,PEGIDA,"political behavior, process",ignore,0
51.05089,13.73832,Germany,2016,24,9,5,2016,9,5,2016,0,Dresden,2000-4999,1000s,PEGIDA,"political behavior, process",ignore,0
51.05089,13.73832,Germany,2016,21,25,4,2016,25,4,2016,0,Dresden,2000-4999,1000s,PEGIDA,"political behavior, process",ignore,0
51.05089,13.73832,Germany,2016,28,30,5,2016,30,5,2016,0,Dresden,2000-4999,1000s,PEGIDA,"political behavior, process",ignore,0
51.05089,13.73832,Germany,2016,37,18,7,2016,18,7,2016,0,Dresden,2000-4999,1000s,PEGIDA,"political behavior, process",ignore,0
51.05089,13.73832,Germany,2016,38,25,7,2016,25,7,2016,0,Dresden,2000-4999,1000s,PEGIDA,"political behavior, process",ignore,0
51.05089,13.73832,Germany,2016,42,22,8,2016,22,8,2016,0,Dresden,2000-4999,1000s,PEGIDA,"political behavior, process",ignore,0
51.05089,13.73832,Germany,2016,31,20,6,2016,20,6,2016,0,Dresden,2000-4999,1000s,PEGIDA,"political behavior, process",ignore,0
51.05089,13.73832,Germany,2016,46,19,9,2016,19,9,2016,0,Dresden,2000-4999,1000s,PEGIDA,"political behavior, process",ignore,0
51.05089,13.73832,Germany,2016,34,4,7,2016,4,7,2016,0,Dresden,2000-4999,1000s,PEGIDA,"political behavior, process",ignore,0
51.05089,13.73832,Germany,2016,10,8,2,2016,8,2,2016,0,Dresden,2000-4999,1000s,PEGIDA,"political behavior, process",ignore,0
51.05089,13.73832,Germany,2016,14,7,3,2016,7,3,2016,0,Dresden,2000-4999,1000s,PEGIDA,"political behavior, process",ignore,0
51.05089,13.73832,Germany,2016,43,29,8,2016,29,8,2016,0,Dresden,2000-4999,1000s,PEGIDA,"political behavior, process",ignore,0
51.05089,13.73832,Germany,2016,40,8,8,2016,8,8,2016,0,Dresden,2000-4999,1000s,PEGIDA,"political behavior, process",ignore,0
51.05089,13.73832,Germany,2016,36,11,7,2016,11,7,2016,0,Dresden,2000-4999,1000s,PEGIDA,"political behavior, process",ignore,0
51.05089,13.73832,Germany,2016,30,13,6,2016,13,6,2016,0,Dresden,2000-4999,1000s,PEGIDA,"political behavior, process",ignore,0
51.05089,13.73832,Germany,2016,39,1,8,2016,1,8,2016,0,Dresden,2000-4999,1000s,PEGIDA,"political behavior, process",ignore,0
51.05089,13.73832,Germany,2016,7,18,1,2016,18,1,2016,0,Dresden,2000-4999,1000s,PEGIDA,"political behavior, process",ignore,0
51.05089,13.73832,Germany,2016,16,21,3,2016,21,3,2016,0,Dresden,2000-4999,1000s,PEGIDA,"political behavior, process",ignore,0
51.05089,13.73832,Germany,2016,29,6,6,2016,6,6,2016,0,Dresden,2000-4999,1000s,PEGIDA,"political behavior, process",ignore,0
51.05089,13.73832,Germany,2016,8,25,1,2016,25,1,2016,0,Dresden,2000-4999,1000s,PEGIDA,"political behavior, process",ignore,0
51.05089,13.73832,Germany,2016,47,26,9,2016,26,9,2016,0,Dresden,2000-4999,1000s,PEGIDA,"political behavior, process",ignore,0
51.05089,13.73832,Germany,2016,15,14,3,2016,14,3,2016,0,Dresden,2000-4999,1000s,PEGIDA,"political behavior, process",ignore,0
51.05089,13.73832,Germany,2016,19,11,4,2016,11,4,2016,0,Dresden,2000-4999,1000s,PEGIDA,"political behavior, process",ignore,0
51.05089,13.73832,Germany,2016,41,15,8,2016,15,8,2016,0,Dresden,2000-4999,1000s,PEGIDA,"political behavior, process",ignore,0
51.05089,13.73832,Germany,2016,45,12,9,2016,12,9,2016,0,Dresden,2000-4999,1000s,PEGIDA,"political behavior, process",ignore,0
51.05089,13.73832,Germany,2016,32,27,6,2016,27,6,2016,0,Dresden,2000-4999,1000s,PEGIDA,"political behavior, process",ignore,0
51.05089,13.73832,Germany,2016,5,11,1,2016,11,1,2016,0,Dresden,2000-4999,1000s,PEGIDA,"political behavior, process",ignore,0
51.05089,13.73832,Germany,2016,25,16,5,2016,16,5,2016,0,Dresden,2000-4999,1000s,PEGIDA,"political behavior, process",ignore,0
51.05089,13.73832,Germany,2016,13,29,2,2016,29,2,2016,0,Dresden,2000-4999,1000s,PEGIDA,"political behavior, process",ignore,0
51.05089,13.73832,Germany,2016,26,23,5,2016,23,5,2016,0,Dresden,2000-4999,1000s,PEGIDA,"political behavior, process",ignore,0
51.05089,13.73832,Germany,2016,18,4,4,2016,4,4,2016,0,Dresden,2000-4999,1000s,PEGIDA,"political behavior, process",ignore,0
51.05089,13.73832,Germany,2016,48,3,10,2016,3,10,2016,0,Dresden,2000-4999,1000s,PEGIDA,"political behavior, process",ignore,0
51.33962,12.37129,Germany,2016,6,11,1,2016,11,1,2016,1,Leipzig,50-99,50+,Leipzig far right group,"political behavior, process",ignore,0
48.78232,9.17702,Germany,2016,22,30,4,2016,30,4,2016,1,Stuttgart,2000-4999,2000,left wing demonstrators,"political behavior, process",crowd dispersal,0
5.55602,-0.1969,Ghana,2016,2,10,2,2016,10,2,2016,0,Accra,100-999,100s,mourners,"political behavior, process",ignore,0
6.68848,-1.62443,Ghana,2016,4,5,3,2016,5,3,2016,0,Ashanti,50-99,50+,youth,"political behavior, process",accomodation,0
7.04446,-0.07935,Ghana,2016,8,18,8,2016,18,8,2016,1,Donkorkrom,50-99,50+,community members,police brutality,crowd dispersal,0
6.60084,0.4713,Ghana,2016,7,17,8,2016,17,8,2016,0,Ho,50-99,50+,youth,"political behavior, process",ignore,0
6.68848,-1.62443,Ghana,2016,5,6,4,2016,6,4,2016,0,Kumasi,2000-4999,1000s,"kayayes, traders, teachers, nurses, and students","political behavior, process",ignore,0
5.65075,-0.18951,Ghana,2016,9,6,10,2016,6,10,2016,0,University of Ghana,1000-1999,1000,professors; students,"political behavior, process",accomodation,0
37.98376,23.72784,Greece,2016,7,14,2,2016,14,2,2016,0,athens,50-99,50+,farmers,"price increases, tax policy",ignore,0
37.98376,23.72784,Greece,2016,14,15,6,2016,15,6,2016,0,Athens,2000-4999,1000s,protesters,"political behavior, process",ignore,0
37.98376,23.72784,Greece,2016,23,4,10,2016,4,10,2016,0,Athens,1000-1999,1000+,pensioners,"political behavior, process",crowd dispersal,0
37.98376,23.72784,Greece,2016,12,22,5,2016,22,5,2016,0,Athens,100-999,100s,protesters,"political behavior, process",ignore,0
37.98376,23.72784,Greece,2016,18,10,9,2016,10,9,2016,0,Athens,2000-4999,1000s,protesters,"price increases, tax policy",ignore,0
37.98376,23.72784,Greece,2016,11,8,5,2016,8,5,2016,1,Athens,>10000,20000,anarchists,"political behavior, process",crowd dispersal,0
37.98376,23.72784,Greece,2016,22,27,9,2016,27,9,2016,0,Athens,100-999,100s,workers,"political behavior, process",ignore,0
37.98376,23.72784,Greece,2016,2,9,1,2016,9,1,2016,0,Athens,100-999,100,demonstrators,labor wage dispute,ignore,0
37.98376,23.72784,Greece,2016,6,12,2,2016,12,2,2016,1,Athens,50-99,50+,farmers,labor wage dispute,crowd dispersal,0
37.98376,23.72784,Greece,2016,16,3,9,2016,3,9,2016,0,Athens,50-99,50+,pensioners,"political behavior, process",ignore,0
38.41102,26.06161,Greece,2016,20,14,9,2016,14,9,2016,0,Chios,50-99,50+,residents,"political behavior, process",ignore,0
38.41102,26.06161,Greece,2016,9,1,4,2016,1,4,2016,1,Chios,100-999,100s,migrants,"political behavior, process",crowd dispersal,0
38.41102,26.06161,Greece,2016,13,7,6,2016,7,6,2016,1,Chios,50-99,50+,migrants,"political behavior, process",ignore,0
37.94007,22.9513,Greece,2016,1,2,1,2016,2,1,2016,1,Corinth,50-99,50+,migrants,"political behavior, process",ignore,0
40.68744,22.85799,Greece,2016,5,6,2,2016,6,2,2016,1,Diavata,50-99,50+,protesters,"political behavior, process",ignore,0
41.12209,22.51102,Greece,2016,10,2,4,2016,2,4,2016,0,Idomeni,100-999,800+,refugees,"political behavior, process",ignore,0
36.84452,27.14665,Greece,2016,8,14,2,2016,14,2,2016,1,Kos,100-999,100,residents,"political behavior, process",crowd dispersal,0
37.18494,26.79986,Greece,2016,15,11,7,2016,11,7,2016,1,Leros,100-999,100s,migrants,"political behavior, process",ignore,0
39.20353,26.27655,Greece,2016,21,20,9,2016,20,9,2016,1,Lesbos,50-99,50+,migrants,"political behavior, process",ignore,0
40.64361,22.93086,Greece,2016,17,9,9,2016,9,9,2016,0,Thessaloniki,50-99,50+,police officers and firefighters,"political behavior, process",ignore,0
40.64361,22.93086,Greece,2016,19,10,9,2016,10,9,2016,0,Thessaloniki,>10000,15000,demonstrators,"price increases, tax policy",ignore,0
11.86357,-15.59767,Guinea-Bissau,2016,1,26,5,2016,26,5,2016,1,Bissau,50-99,50+,African Party for the Independence of Guinea and Cape Verde,removal of politician,crowd dispersal,0
9.53795,-13.67729,Guinea,2016,3,16,8,2016,16,8,2016,0,Conakry,>10000,500000-700000,Guineans,"political behavior, process",crowd dispersal,0
9.53795,-13.67729,Guinea,2016,1,8,2,2016,8,2,2016,0,Conakry,100-999,100s,journalists,"political behavior, process",ignore,0
12.08333,-12.08333,Guinea,2016,2,17,6,2016,17,6,2016,1,Mali,50-99,50+,protesters,police brutality,shootings,0
18.73582,-72.41929,Haiti,2016,3,9,6,2016,9,6,2016,0,Cabaret,100-999,hundreds,women; disabled,"political behavior, process",ignore,0
18.54349,-72.33881,Haiti,2016,2,1,4,2016,1,4,2016,0,Port au Prince,100-999,hundreds,women; disabled,"political behavior, process",ignore,0
14.0818,-87.20681,Honduras,2016,2,5,3,2016,5,3,2016,0,Tegucigalpa,1000-1999,more than 1000,environmental human rights activists,"political behavior, process",ignore,0
47.49835,19.04045,Hungary,2016,1,22,7,2016,22,7,2016,0,Budapest,100-999,100s,migrants,"political behavior, process",ignore,0
47.49835,19.04045,Hungary,2016,2,16,10,2016,16,10,2016,0,Budapest,100-999,100s,protesters,"political behavior, process",ignore,0
12.97194,77.59369,India,2016,5,12,9,2016,12,9,2016,1,"City of Bangalore, State of Karnataka",50-99,>50,Karnataka citizens,"political behavior, process",crowd dispersal,0
28.65195,77.23149,India,2016,6,27,11,2016,27,11,2016,0,Delhi,100-999,Hundreds,Gay rights activists,social restrictions,ignore,0
-6.21462,106.84513,Indonesia,2016,3,29,9,2016,29,9,2016,0,Jakarta,2000-4999,Thousands,Union workers,"price increases, tax policy",ignore,0
-6.21462,106.84513,Indonesia,2016,5,1,12,2016,1,12,2016,1,Jakarta,100-999,About 150 protesters,Mostly university students from the Free Papua Organisation and the Papua Student Alliance,"political behavior, process",crowd dispersal,0
3.55806,98.67172,Indonesia,2016,2,16,8,2016,16,8,2016,0,"Soewondo Air Force Base, Medan, North Sumatra",100-999,Hundreds,Journalists,"political behavior, process",ignore,0
35.7972,51.3862,Iran,2016,1,2,1,2016,2,1,2016,0,"Evin Prison, Tehran",50-99,around 50,rights activists,"political behavior, process",accomodation,0
35.69439,51.42151,Iran,2016,4,9,9,2016,9,9,2016,0,Tehran,2000-4999,thousands,religious activists,"political behavior, process",ignore,0
