,unique(data$location_country),latitude,longitude,country,year,protestnumber,startday,startmonth,startyear,endday,endmonth,endyear,protesterviolence,location,participants_category,participants,protesteridentity,protesterdemand1,stateresponse1,protest_length
3432,Greece Athens,37.98376,23.72784,Greece,2013,13,22,7,2013,11,5,2015,0,Athens,100-999,100s,state paid cleaning ladies,labor wage dispute,accomodation,658
1424,Chile Chiloe Island,-42.55798,-73.94676,Chile,2016,1,15,5,2016,17,5,2017,0,Chiloe Island,50-99,>50,fishermen,"political behavior, process",ignore,367
3087,Germany Frankfurt,50.11552,8.68417,Germany,2011,8,15,10,2011,6,8,2012,0,Frankfurt,100-999,340,"activists, anti capitalists, leftists","political behavior, process",ignore,296
8983,Thailand Bangkok,13.75398,100.50144,Thailand,2001,6,16,5,2001,16,12,2001,0,Bangkok,NA,130,villagers,land farm issue,accomodation,214
6180,"Mexico Oaxaca, Oaxaca",17.06542,-96.72365,Mexico,2006,3,23,5,2006,6,12,2006,1,"Oaxaca, Oaxaca",NA,70000,teachers union,labor wage dispute,beatings,197
1465,Chile Santiago,-33.45694,-70.64827,Chile,2011,5,29,5,2011,7,12,2011,1,Santiago,NA,100000s,"university students, teachers, University of Chile Student Federation, demonstrators","price increases, tax policy",crowd dispersal,192
1304,"Canada Caledonia, Ontario",45.4668,-74.78257,Canada,2006,1,21,2,2006,17,8,2006,1,"Caledonia, Ontario",NA,200,Mohawk Indians,police brutality,crowd dispersal,177
2728,France Paris,48.85341,2.3488,France,1996,3,21,3,1996,23,8,1996,0,Paris,100-999,400,African immigrants,"political behavior, process",ignore,155
3427,Greece Athens,37.98376,23.72784,Greece,2013,8,11,6,2013,8,11,2013,0,Athens,>10000,>10000,"protesters, journalists, tv personalities, two main unions, Adedy  civil servants  union , state TV employees","political behavior, process",crowd dispersal,150
2313,Egypt Cairo,30.06263,31.24967,Egypt,2010,1,1,2,2010,28,6,2010,0,Cairo,NA,10000,labor,labor wage dispute,ignore,147
9415,Ukraine Kiev,50.45466,30.5238,Ukraine,2017,1,17,10,2017,3,3,2018,0,Kiev,5000-10000,5000,protesters,"political behavior, process",arrests,137
10152,Vietnam Ho Chi Minh City,10.82302,106.62965,Vietnam,2000,1,3,7,2000,15,11,2000,0,Ho Chi Minh City,NA,75,peasants,"political behavior, process",accomodation,135
1323,Canada Quebec,46.81228,-71.21454,Canada,2012,1,10,2,2012,6,6,2012,1,Quebec,NA,1000s,university students,"price increases, tax policy",crowd dispersal,117
1732,Colombia Bogota,4.60971,-74.08175,Colombia,2011,3,22,6,2011,17,10,2011,0,Bogota,NA,300,women,"political behavior, process",accomodation,117
6239,Moldova Chisinau,47.00556,28.8575,Moldova,2002,1,9,1,2002,29,4,2002,0,Chisinau,>10000,80000,"Moldovans, youth, pro Romanian parliamentary opposition, Popular Christian Democratic Party","political behavior, process",ignore,110
1692,China Xiantang,27.0325,111.06417,China,2007,5,1,7,2007,18,10,2007,0,Xiantang,NA,200,locals,land farm issue,ignore,109
9405,Ukraine Kiev,50.45466,30.5238,Ukraine,2013,2,21,11,2013,8,3,2014,1,Kiev,>10000,10000s,"protesters, Ukrainian Democratic Alliance for Reform","political behavior, process",crowd dispersal,107
6288,Moldova Chisinau,47.00556,28.8575,Moldova,2016,1,12,1,2016,24,4,2016,0,Chisinau,50-99,50+,Civic Platform DA  Dignity and Justice,"political behavior, process",ignore,103
7481,Philippines Manila,14.6042,120.9822,Philippines,2016,2,14,8,2016,25,11,2016,0,Manila,2000-4999,"About 2,000 people",Protesters opposed to Duterte s plans to move late dictator Ferdinand Marcos s remains to the National Heroes  Cemetery; Marcos era victims of torture and imprisonment as well as relatives of victims of extrajudicial killings; a group representing almost 40 anti Marcos organisations; male students from the University of the Philippines,"political behavior, process",ignore,103
862,Bolivia La Paz,-16.5,-68.15,Bolivia,2011,5,17,11,2011,25,2,2012,1,La Paz,NA,50,disabled people,"political behavior, process",crowd dispersal,100
6363,Morocco al Hoceima,35.25165,-3.93723,Morocco,2017,2,29,5,2017,27,8,2017,1,al Hoceima,100-999,100,Hirak Chaabi,police brutality,arrests,90
6678,Nepal Birgunj,27.01709,84.8808,Nepal,2015,17,24,9,2015,23,12,2015,0,Birgunj,100-999,100s,"Madhesi community, Sadbhawana party, United Democratic Madhesi Front  UDMF","political behavior, process",ignore,90
6258,Moldova Chisinau,47.00556,28.8575,Moldova,2004,3,1,8,2004,25,10,2004,0,Chisinau,100-999,100s,"journalists, Moldovans","political behavior, process",crowd dispersal,85
8963,Thailand Bangkok,13.75398,100.50144,Thailand,1997,1,27,1,1997,20,4,1997,0,Bangkok,NA,10000,"palm oil farmers, Assembly of the Poor",land farm issue,ignore,83
1623,China Hong Kong,22.27832,114.17469,China,2014,28,26,9,2014,15,12,2014,1,Hong Kong,>10000,>100000,"school pupils, Scholarism, pro democracy activists, Occupy Central, Hong Kong Federation of Students, Umbrella Movement","political behavior, process",ignore,80
9664,United Kingdom London,51.50853,-0.12574,United Kingdom,2010,3,1,5,2010,20,7,2010,0,London,50-99,50+,protesters,"political behavior, process",crowd dispersal,80
10292,Yugoslavia Belgrade,44.78877,20.45212,Yugoslavia,1996,5,17,11,1996,3,2,1997,1,Belgrade,>10000,25000+,students and professors,"political behavior, process",arrests,78
9389,Ukraine Kiev,50.45466,30.5238,Ukraine,2000,2,15,12,2000,2,3,2001,0,Kiev,100-999,100s,unspecified,"political behavior, process",crowd dispersal,77
9170,Tunisia El Kamour,34.87573,8.82869,Tunisia,2017,2,14,3,2017,28,5,2017,1,El Kamour,5000-10000,thousands,youth,"political behavior, process",crowd dispersal,75
3563,Guatemala Guatemala City,14.64072,-90.51327,Guatemala,2017,1,27,8,2017,9,11,2017,0,Guatemala City,100-999,hundreds,protesters,"political behavior, process",ignore,74
6177,Mexico Oaxaca,17.06542,-96.72365,Mexico,2016,3,18,6,2016,31,8,2016,1,Oaxaca,2000-4999,thousands,Teacher s Union,"political behavior, process",arrests,74
8967,Thailand Bangkok,13.75398,100.50144,Thailand,2010,5,13,3,2010,19,5,2010,0,Bangkok,NA,150000,United Front of Democracy against Dictatorship,removal of politician,ignore,67
150,Argentina Buenos Aires,-34.61315,-58.37723,Argentina,2007,3,10,8,2007,13,10,2007,0,Buenos Aires,NA,600,Chinese shopkeepers & consumer groups,"political behavior, process",ignore,64
8837,Taiwan Taipei,25.04776,121.53185,Taiwan,2008,3,11,9,2008,14,11,2008,0,Taipei,NA,100,Taiwan Wild Strawberries Movement,police brutality,ignore,64
6794,Nepal Kathmandu,27.70169,85.3206,Nepal,2016,2,14,5,2016,15,7,2016,1,Kathmandu,100-999,About 500 demonstrators,"Ethnic Madhesi protesters, Federal Alliance","political behavior, process",crowd dispersal,62
1305,"Canada Clayoquot Sound, British Columbia",49.21648,-126.12562,Canada,1993,2,1,7,1993,31,8,1993,0,"Clayoquot Sound, British Columbia",NA,100s,environmental activitists,"political behavior, process",arrests,61
4768,Italy Sicily,37.62304,13.93457,Italy,2002,8,20,5,2002,20,7,2002,0,Sicily,100-999,100s,"peasants, farmers",land farm issue,crowd dispersal,61
6443,Myanmar Mandalay,21.97473,96.08359,Myanmar,1990,2,27,8,1990,27,10,1990,0,Mandalay,NA,1000,Buddhist monks,"political behavior, process",arrests,61
6826,Nepal Nationwide,NA,NA,Nepal,2000,9,1,6,2000,1,8,2000,0,Nationwide,NA,1000,essential service employees,labor wage dispute,accomodation,61
1425,Chile Chuquicamata,-22.31581,-68.92898,Chile,1996,2,3,5,1996,2,7,1996,0,Chuquicamata,NA,7000,mine workers,labor wage dispute,ignore,60
977,Brazil Rio de Janeiro,-22.90642,-43.18223,Brazil,2016,10,15,5,2016,13,7,2016,0,Rio de Janeiro,50-99,more than a dozen schools,teachers and students,labor wage dispute,ignore,59
6098,Mexico Guerrero state,18.96396,-99.67353,Mexico,1990,2,7,1,1990,7,3,1990,1,Guerrero state,NA,350,Democratic Revolutionary Party,"political behavior, process",crowd dispersal,59
1312,"Canada Montreal, Quebec",45.50884,-73.58781,Canada,1990,4,12,7,1990,6,9,1990,1,"Montreal, Quebec",NA,100s,Mohawk Indians,land farm issue,accomodation,56
1740,Colombia Catatumbo region,NA,NA,Colombia,2013,1,1,6,2013,24,7,2013,0,Catatumbo region,NA,>50,coca growing peasants,"political behavior, process",ignore,53
6723,Nepal Kathmandu,27.70169,85.3206,Nepal,2004,2,1,4,2004,24,5,2004,1,Kathmandu,NA,10000,NA,"political behavior, process",arrests,53
5613,Lesotho Maseru,-29.31667,27.48333,Lesotho,1998,4,4,8,1998,24,9,1998,1,Maseru,2000-4999,1000s,Opposition Parties    Supporters,"political behavior, process",crowd dispersal,51
9190,Tunisia Tunis,36.81897,10.16579,Tunisia,2017,1,7,1,2017,27,2,2017,0,Tunis,100-999,hundreds,anti terrorism protesters,"political behavior, process",ignore,51
1693,China Xianyang,34.44712,108.75159,China,2004,9,11,8,2004,29,9,2004,0,Xianyang,NA,7000,textile workers,labor wage dispute,arrests,49
829,Bolivia La Paz,-16.5,-68.15,Bolivia,1995,6,14,3,1995,29,4,1995,1,La Paz,NA,1000,"urban and rural teachers  federations, Bolivian Labour Confederation, miners",labor wage dispute,crowd dispersal,46
6139,Mexico Mexico City,19.42847,-99.12766,Mexico,2006,7,31,7,2006,14,9,2006,0,Mexico City,NA,100s-1000s,Democratic Revolutionary Party  PRD,"political behavior, process",ignore,45
10269,Yugoslavia Belgrade,44.78877,20.45212,Yugoslavia,1997,2,1,1,1997,15,2,1997,0,Belgrade,>10000,300000+,opposition coalition,removal of politician,crowd dispersal,45
10282,Yugoslavia Belgrade,44.78877,20.45212,Yugoslavia,1997,1,1,1,1997,15,2,1997,0,Belgrade,>10000,10000+,protesters,removal of politician,accomodation,45
8955,Thailand bangkok,13.75398,100.50144,Thailand,2007,12,9,6,2007,23,7,2007,0,bangkok,NA,10000,Democratic Alliance Against Dictatorship,removal of politician,ignore,44
10291,Yugoslavia Belgrade,44.78877,20.45212,Yugoslavia,1996,4,17,11,1996,31,12,1996,1,Belgrade,>10000,100000+,opposition coalition Zajedno,"political behavior, process",arrests,44
2342,Egypt Cairo,30.06263,31.24967,Egypt,2013,6,3,7,2013,14,8,2013,1,Cairo,NA,1000s-10000s,Muslim Brotherhood,"political behavior, process",crowd dispersal,42
9059,Thailand Bangkok,13.75398,100.50144,Thailand,2008,2,30,5,2008,11,7,2008,0,Bangkok,NA,1000,PAD,removal of politician,ignore,42
7318,Papua New Guinea Port Moresby,-9.47723,147.15089,Papua New Guinea,1991,1,24,5,1991,4,7,1991,1,Port Moresby,NA,800,students at the University of Papua New Guinea,"political behavior, process",ignore,41
9406,Ukraine Kiev,50.45466,30.5238,Ukraine,2013,3,21,11,2013,31,12,2013,1,Kiev,>10000,350000,Fatherland and Svoboda Parties,"political behavior, process",crowd dispersal,40
6173,Mexico Morelia,19.70078,-101.18443,Mexico,1992,2,7,8,1992,15,9,1992,1,Morelia,NA,100s-10000s,Party of the Democratic Revolution,"political behavior, process",ignore,39
7500,Poland Nationwide,NA,NA,Poland,1997,10,14,10,1997,22,11,1997,1,Nationwide,100-999,> 300,doctors and anaesthesiologists,"political behavior, process",ignore,39
9831,United Kingdom Newbury,51.40148,-1.32471,United Kingdom,1996,1,1,1,1996,7,2,1996,0,Newbury,100-999,200+,protesters,"political behavior, process",crowd dispersal,37
5828,Madagascar Antananarivo,-18.91368,47.53613,Madagascar,2002,2,26,1,2002,3,3,2002,1,Antananarivo,>10000,500000+,Supporters of Marc Ravalomanana,removal of politician,crowd dispersal,36
6174,"Mexico Morelia, Michoacan",19.70078,-101.18443,Mexico,1992,3,1,9,1992,7,10,1992,0,"Morelia, Michoacan",NA,1000s,Democratic Revolutionary Party  PRD,"political behavior, process",accomodation,36
845,Bolivia La Paz,-16.5,-68.15,Bolivia,1998,4,2,9,1998,6,10,1998,1,La Paz,NA,100,cocoa farmers from Chapare and Yungas regions,"political behavior, process",crowd dispersal,34
865,Bolivia La Paz,-16.5,-68.15,Bolivia,1996,5,18,3,1996,21,4,1996,1,La Paz,NA,50000,"school & hospital workers, government workers, COB",labor wage dispute,accomodation,34
3642,"Guinea Conakry, Conakry Region",9.53795,-13.67729,Guinea,2013,4,27,2,2013,2,4,2013,1,"Conakry, Conakry Region",2000-4999,1000s,opposition demonstrators,"political behavior, process",arrests,34
61,Albania Tirana,41.3275,19.81889,Albania,2010,1,30,3,2010,30,4,2010,0,Tirana,>10000,10000s,protesters,"political behavior, process",ignore,31
972,Brazil Rio de Janeiro,-22.90642,-43.18223,Brazil,2013,20,15,8,2013,15,9,2013,1,Rio de Janeiro,NA,>50,slum dwellers,police brutality,crowd dispersal,31
1322,Canada Quebec,46.81228,-71.21454,Canada,2005,1,3,3,2005,3,4,2005,1,Quebec,NA,170000,college students,"political behavior, process",arrests,31
1478,Chile Santiago,-33.45694,-70.64827,Chile,2016,3,15,7,2016,15,8,2016,0,Santiago,>10000,hundreds of thousands,workers,labor wage dispute,ignore,31
5025,Kazakhstan Kentau,43.51672,68.50463,Kazakhstan,1997,8,1,10,1997,1,11,1997,1,Kentau,NA,2000,Coal Workers,labor wage dispute,crowd dispersal,31
5920,Malaysia Kuala Lumpur,3.1412,101.68653,Malaysia,1995,1,1,3,1995,1,4,1995,0,Kuala Lumpur,NA,50,taxi drivers,labor wage dispute,ignore,31
6356,Montenegro Podgorica,42.44111,19.26361,Montenegro,2012,1,21,1,2012,21,2,2012,0,Podgorica,5000-10000,5000+,unions campaigning groups and student organizations,"political behavior, process",ignore,31
6364,Morocco al Hoceima,35.25165,-3.93723,Morocco,2017,4,1,7,2017,1,8,2017,0,al Hoceima,>10000,1000000,Hirak Chaabi,police brutality,arrests,31
6422,Mozambique Maputo,-25.96553,32.58322,Mozambique,2009,1,2,8,2009,2,9,2009,0,Maputo,100-999,100s,Protesters,"political behavior, process",ignore,31
7751,Russia Moscow,55.75222,37.61556,Russia,2017,9,14,5,2017,14,6,2017,0,Moscow,>10000,30000,women,land farm issue,ignore,31
8435,South Korea Seoul,37.566,126.9784,South Korea,2011,1,14,5,2011,14,6,2011,0,Seoul,NA,1000s,students,"price increases, tax policy",ignore,31
8981,Thailand Bangkok,13.75398,100.50144,Thailand,2012,3,12,5,2012,12,6,2012,0,Bangkok,NA,>2000,Akong sympathizers,"political behavior, process",ignore,31
9301,Uganda Kampala,0.31628,32.58219,Uganda,2004,1,23,1,2004,23,2,2004,0,Kampala,100-999,100s,parliament members and environmentalists,"price increases, tax policy",ignore,31
2772,France Paris,48.85341,2.3488,France,2014,7,17,6,2014,17,7,2014,1,Paris,50-99,50+,railway workers,labor wage dispute,crowd dispersal,30
5034,Kazakhstan Nationwide,NA,NA,Kazakhstan,2016,1,15,4,2016,15,5,2016,0,Nationwide,2000-4999,Thousands,Protesters against a planned land reform and the government of President Nursultan Nazarbayev,land farm issue,ignore,30
6308,Moldova Tiraspol,46.84274,29.62909,Moldova,1991,7,1,9,1991,1,10,1991,0,Tiraspol,100-999,100s,"Russian women, Ukranian women","political behavior, process",ignore,30
6798,Nepal Kathmandu,27.70169,85.3206,Nepal,2009,1,1,1,2009,31,1,2009,0,Kathmandu,NA,100,Gurkhas,labor wage dispute,ignore,30
8068,South Africa Johannesburg,-26.20227,28.04363,South Africa,1991,5,1,5,1991,31,5,1991,0,Johannesburg,100-999,200,Prisoners,"political behavior, process",ignore,30
1308,Canada Labrador,52,-56,Canada,2016,10,13,10,2016,11,11,2016,0,Labrador,100-999,busloads,indigenous residents,"political behavior, process",arrests,29
6285,Moldova Chisinau,47.00556,28.8575,Moldova,2015,12,1,10,2015,30,10,2015,0,Chisinau,2000-4999,1000s,protesters,"political behavior, process",ignore,29
3089,Germany Frankfurt,50.11552,8.68417,Germany,2015,10,18,2,2015,18,3,2015,1,Frankfurt,2000-4999,1000s,protesters,"political behavior, process",crowd dispersal,28
5576,Lebanon Beruit,NA,NA,Lebanon,2005,1,17,2,2005,17,3,2005,0,Beruit,NA,100000,anti syria,"political behavior, process",ignore,28
8993,Thailand Bangkok,13.75398,100.50144,Thailand,2003,1,1,1,2003,29,1,2003,0,Bangkok,NA,50,villagers,land farm issue,crowd dispersal,28
9122,Thailand Kanchanaburi,14.00412,99.54832,Thailand,1997,5,2,12,1997,30,12,1997,0,Kanchanaburi,NA,50,Kanchanaburi Environment Group,land farm issue,accomodation,28
1268,Cambodia Phnom Phen,11.56245,104.91601,Cambodia,1998,3,24,8,1998,20,9,1998,1,Phnom Phen,NA,10000,political opposition,"political behavior, process",ignore,27
5922,Malaysia Kuala Lumpur,3.1412,101.68653,Malaysia,1995,3,16,6,1995,13,7,1995,0,Kuala Lumpur,NA,50,vietnamese refugees,"political behavior, process",ignore,27
8217,South Korea Nationwide,NA,NA,South Korea,2002,2,26,2,2002,25,3,2002,0,Nationwide,NA,5300,utility workers,labor wage dispute,ignore,27
8777,Taiwan Taipei,25.04776,121.53185,Taiwan,1990,2,22,2,1990,21,3,1990,0,Taipei,NA,200,Democratic Progressive Party Members,"political behavior, process",crowd dispersal,27
8990,Thailand Bangkok,13.75398,100.50144,Thailand,2002,5,31,3,2002,27,4,2002,0,Bangkok,NA,10000,farmers,land farm issue,ignore,27
9481,United Kingdom Balcombe,51.06113,-0.13508,United Kingdom,2013,14,25,7,2013,21,8,2013,1,Balcombe,1000-1999,1000,"anti fracking activists, environmentalists, women, children",land farm issue,crowd dispersal,27
229,Armenia Yerevan,40.18111,44.51361,Armenia,1999,1,13,1,1999,8,2,1999,0,Yerevan,NA,300,Communist Party of Armenia,removal of politician,ignore,26
3704,Guyana Linden,6.00809,-58.30714,Guyana,2012,1,18,7,2012,13,8,2012,1,Linden,NA,>50,NA,"price increases, tax policy",crowd dispersal,26
3946,India Jaipur,26.91962,75.78781,India,2008,2,23,5,2008,18,6,2008,1,Jaipur,NA,1000,Gujjars,social restrictions,killings,26
7842,Russia St. Petersburg,59.93863,30.31413,Russia,2017,1,28,1,2017,23,2,2017,0,St. Petersburg,5000-10000,about 8000,protesters,"political behavior, process",ignore,26
8768,Taiwan Kaohsiung,22.61626,120.31333,Taiwan,1992,6,1,5,1992,27,5,1992,1,Kaohsiung,NA,300,villagers,"political behavior, process",crowd dispersal,26
1309,Canada Montreal,45.50884,-73.58781,Canada,2017,1,1,10,2017,26,10,2017,0,Montreal,50-99,50,Muslim Council of Montreal,social restrictions,ignore,25
1532,China Daqing,46.58333,125,China,2002,1,2,3,2002,27,3,2002,0,Daqing,NA,20000,petroleum workers,labor wage dispute,arrests,25
2085,Cyprus Nicosia,35.17531,33.3642,Cyprus,2010,2,17,5,2010,11,6,2010,0,Nicosia,100-999,185,"Kurdish Syrians refugees, Kurdish Syrian Yekiti Party","political behavior, process",ignore,25
5435,Kyrgyzstan Dzhalal Abad; Naryn,41.1328,72.08158,Kyrgyzstan,2013,9,5,3,2013,30,3,2013,0,Dzhalal Abad; Naryn,NA,100s,Ata Jurt party,"political behavior, process",ignore,25
7334,Papua New Guinea Port Moresby,-9.47723,147.15089,Papua New Guinea,2016,1,15,5,2016,9,6,2016,1,Port Moresby,1000-1999,About 1000,University students,removal of politician,shootings,25
10156,Vietnam Southern Vietnam,33.75667,-117.98444,Vietnam,2006,1,1,1,2006,26,1,2006,0,Southern Vietnam,NA,10000,factory workers,labor wage dispute,accomodation,25
808,Bolivia Chapare,-16.80922,-65.71926,Bolivia,1997,3,20,4,1997,14,5,1997,1,Chapare,NA,7000,cocoa growers,"political behavior, process",crowd dispersal,24
820,Bolivia eastern provinces,NA,NA,Bolivia,2009,1,1,1,2009,25,1,2009,0,eastern provinces,NA,1000,Opponents of Morales,"political behavior, process",ignore,24
7678,Romania Bucharest,44.43225,26.10626,Romania,2012,1,12,1,2012,5,2,2012,1,Bucharest,1000-1999,1000s,unspecified,"political behavior, process",arrests,24
1102,Bulgaria Sofia,42.69751,23.32415,Bulgaria,2013,4,23,10,2013,15,11,2013,0,Sofia,2000-4999,2000,university students,"political behavior, process",ignore,23
1428,Chile Curanilahue,-37.47793,-73.34495,Chile,2016,6,6,12,2016,29,12,2016,0,Curanilahue,50-99,75,miners,labor wage dispute,ignore,23
2418,El Salvador Santa Ana,13.99417,-89.55972,El Salvador,1996,3,16,6,1996,9,7,1996,0,Santa Ana,NA,800,prisoners,"political behavior, process",ignore,23
5698,Libya Tripoli,32.88743,13.18733,Libya,2014,2,7,2,2014,2,3,2014,1,Tripoli,50-99,>50,rioters,"political behavior, process",ignore,23
6652,Namibia Windhoek,-22.55941,17.08323,Namibia,2010,2,1,6,2010,24,6,2010,0,Windhoek,100-999,125,"youth, struggle children",labor wage dispute,ignore,23
8891,Taiwan Taipei,25.04776,121.53185,Taiwan,2014,1,18,3,2014,10,4,2014,1,Taipei,>10000,>32200,"university students, protesters, Several civic groups, Democratic Progressive Party, farmers from the 1988 riots, Sunflower Movement","political behavior, process",crowd dispersal,23
9434,Ukraine Lviv,49.83826,24.02324,Ukraine,2014,11,24,1,2014,16,2,2014,0,Lviv,2000-4999,2000,"anti government protesters, local trade union","political behavior, process",crowd dispersal,23
191,Argentina La Plata,-34.92145,-57.95453,Argentina,2001,5,8,8,2001,30,8,2001,0,La Plata,NA,1000,"teachers, workers","political behavior, process",ignore,22
6840,Nepal Southern Lowlands,NA,NA,Nepal,2007,1,15,1,2007,6,2,2007,1,Southern Lowlands,NA,100,Madheshis ethnic group,"political behavior, process",arrests,22
6152,Mexico Mexico City,19.42847,-99.12766,Mexico,2013,3,23,8,2013,13,9,2013,0,Mexico City,NA,1000s,teachers  union,labor wage dispute,accomodation,21
6218,Moldova Chisinau,47.00556,28.8575,Moldova,1995,4,25,3,1995,15,4,1995,0,Chisinau,50-99,>50,students,"political behavior, process",ignore,21
6623,Namibia Windhoek,-22.55941,17.08323,Namibia,1997,9,23,10,1997,13,11,1997,0,Windhoek,100-999,200+,Ex fighters and supporters,"political behavior, process",ignore,21
6629,Namibia Windhoek,-22.55941,17.08323,Namibia,1998,7,6,8,1998,27,8,1998,0,Windhoek,1000-1999,100-1500+,Ex fighters,"political behavior, process",ignore,21
6672,Namibia Windhoek,-22.55941,17.08323,Namibia,2012,2,23,2,2012,15,3,2012,0,Windhoek,50-99,60,"Municipal bus drivers, Namibia Public Workers Union  Napwu",labor wage dispute,ignore,21
7175,Pakistan Islamabad,33.72148,73.04329,Pakistan,2007,1,27,1,2007,17,2,2007,0,Islamabad,NA,200,female students,"political behavior, process",accomodation,21
8664,Suriname Paramaribo,5.86638,-55.16682,Suriname,2010,1,18,2,2010,11,3,2010,0,Paramaribo,NA,50,health workers in the largest public hospital in Suriname,labor wage dispute,accomodation,21
9983,Uzbekistan Fergana,40.38421,71.78432,Uzbekistan,2003,2,31,7,2003,21,8,2003,0,Fergana,NA,1400,Workers of a state owned chemical factory,labor wage dispute,ignore,21
1752,Colombia southern Colombia,33.28985,-93.236,Colombia,1994,5,22,12,1994,11,1,1995,0,southern Colombia,NA,5000,putumayo peasant movement,"political behavior, process",accomodation,20
2749,France Paris,48.85341,2.3488,France,1997,2,17,1,1997,6,2,1997,1,Paris,1000-1999,>1000,Credit Foncier employees,"political behavior, process",ignore,20
6626,Namibia Windhoek,-22.55941,17.08323,Namibia,2010,3,12,7,2010,1,8,2010,1,Windhoek,50-99,>50,university students,labor wage dispute,ignore,20
6700,Nepal Kathmandu,27.70169,85.3206,Nepal,1992,3,7,4,1992,27,4,1992,0,Kathmandu,NA,1000,youth,police brutality,ignore,20
7170,Pakistan Islamabad,33.72148,73.04329,Pakistan,2017,8,5,11,2017,25,11,2017,1,Islamabad,2000-4999,">3,000","Protesters led by Khadim Hussain Rizvi of the Tehreek e Labaik Pakistan party, that are opposed to amending a law that requires all political candidates to affirm their belief that Muhammad, who lived in the 7th century, was Islam s final prophet, and demanding the federal law minister be fired","political behavior, process",crowd dispersal,20
8980,Thailand Bangkok,13.75398,100.50144,Thailand,2012,2,12,5,2012,1,6,2012,0,Bangkok,NA,2000,royalist People s Alliance for Democracy  PAD,"political behavior, process",crowd dispersal,20
9610,United Kingdom Glasgow,55.86515,-4.25763,United Kingdom,2011,12,18,10,2011,7,11,2011,0,Glasgow,100-999,100s,Occupy protesters,"political behavior, process",accomodation,20
869,Bolivia La Paz,-16.5,-68.15,Bolivia,2017,1,15,4,2017,4,5,2017,0,La Paz,100-999,hundreds,handicapped,social restrictions,crowd dispersal,19
1022,Bulgaria Sofia,42.69751,23.32415,Bulgaria,1990,14,5,7,1990,24,7,1990,0,Sofia,1000-1999,1200,"students, teachers, university lecturers, intellectuals, artists, taxi drivers",removal of politician,ignore,19
2287,Egypt Cairo,30.06263,31.24967,Egypt,2011,15,8,7,2011,27,7,2011,1,Cairo,NA,1000s,Unions and other youth organizations,"political behavior, process",ignore,19
10125,Venezuela Guayana,4,-60,Venezuela,2013,7,15,9,2013,4,10,2013,0,Guayana,NA,1000s,workers,labor wage dispute,crowd dispersal,19
3977,India New Delhi,28.65195,77.23149,India,2012,9,17,12,2012,4,1,2013,1,New Delhi,NA,10000s,women s groups,"political behavior, process",crowd dispersal,18
5826,Madagascar Antananarivo,-18.91368,47.53613,Madagascar,2000,1,25,12,2000,12,1,2001,1,Antananarivo,100-999,300-500,Supporters of MP Jean Eugene Voninahitsy,"political behavior, process",crowd dispersal,18
6194,Mexico Tabasco,18,-92.66667,Mexico,1996,2,31,1,1996,18,2,1996,0,Tabasco,NA,1000,Democratic Revolutionary Party  PRD,"political behavior, process",arrests,18
6414,Mozambique Maputo,-25.96553,32.58322,Mozambique,2001,1,6,8,2001,24,8,2001,1,Maputo,100-999,100s,port workers,labor wage dispute,accomodation,18
7570,Portugal Lisbon,38.71667,-9.13333,Portugal,1995,1,25,4,1995,13,5,1995,0,Lisbon,50-99,>50,"archaeologists, historians, parliamentarians and others",land farm issue,ignore,18
10070,Venezuela Caracas,10.48801,-66.87919,Venezuela,2009,16,24,9,2009,12,10,2009,0,Caracas,NA,150,students,"political behavior, process",ignore,18
841,Bolivia La Paz,-16.5,-68.15,Bolivia,1996,10,23,9,1996,10,10,1996,1,La Paz,NA,25000,"Indigenous groups, peasants",land farm issue,ignore,17
2065,Cyprus Nicosia,35.17531,33.3642,Cyprus,2011,14,11,7,2011,28,7,2011,1,Nicosia,2000-4999,1000s,"Cypriots, extreme nationalist right wing groups,",removal of politician,crowd dispersal,17
7423,Peru Lima,-12.04318,-77.02824,Peru,2017,3,15,10,2017,1,11,2017,0,Lima,100-999,100,women,social restrictions,ignore,17
8854,Taiwan Taipei,25.04776,121.53185,Taiwan,2006,9,10,9,2006,27,9,2006,0,Taipei,NA,320000,1 Million People Against Corruption,removal of politician,ignore,17
10032,Venezuela Caracas,10.48801,-66.87919,Venezuela,1998,5,1,9,1998,18,9,1998,0,Caracas,NA,1100,doctors,labor wage dispute,ignore,17
554,Bangladesh Dhaka,23.7104,90.40744,Bangladesh,2000,11,2,9,2000,18,9,2000,0,Dhaka,NA,93000,Teachers,"political behavior, process",ignore,16
843,Bolivia La Paz,-16.5,-68.15,Bolivia,1996,1,1,1,1996,17,1,1996,0,La Paz,NA,900,cocoa women,"political behavior, process",accomodation,16
854,Bolivia La Paz,-16.5,-68.15,Bolivia,2000,5,20,9,2000,6,10,2000,1,La Paz,NA,100,"cocoa farmers, teachers, peasants","political behavior, process",crowd dispersal,16
876,Bolivia Potosi,-19.58361,-65.75306,Bolivia,2010,1,1,8,2010,17,8,2010,0,Potosi,NA,6000,NA,"political behavior, process",accomodation,16
1049,Bulgaria Sofia,42.69751,23.32415,Bulgaria,1993,1,14,1,1993,30,1,1993,0,Sofia,>10000,10000s,opposition  Union of Democratic Forces  supporters,removal of politician,ignore,16
1242,Cambodia Battambang,13.10271,103.19822,Cambodia,1994,1,1,5,1994,17,5,1994,0,Battambang,NA,1000,monks and nuns and foreigners,"political behavior, process",shootings,16
1753,Colombia Toribio,3,-76.16667,Colombia,2012,2,1,7,2012,17,7,2012,0,Toribio,NA,1000s,Nasa tribe,"political behavior, process",crowd dispersal,16
7380,Peru Cajamarca,-7.16378,-78.50027,Peru,2011,5,24,11,2011,10,12,2011,1,Cajamarca,NA,5000,"students, farmers and local residents","political behavior, process",crowd dispersal,16
10151,Vietnam Hanoi,21.0245,105.84117,Vietnam,2008,2,14,8,2008,30,8,2008,0,Hanoi,NA,100,Catholics,land farm issue,arrests,16
823,"Bolivia El Alto, La Paz",-16.51334,-68.19226,Bolivia,2005,2,23,5,2005,7,6,2005,1,"El Alto, La Paz",NA,1000,"Indians, miners. farmers, students","political behavior, process",crowd dispersal,15
1336,"Canada Toronto, Ontario",43.70011,-79.4163,Canada,2016,4,20,3,2016,4,4,2016,0,"Toronto, Ontario",100-999,hundreds,Black Lives Matter,police brutality,crowd dispersal,15
3757,Haiti Port au Prince,18.54349,-72.33881,Haiti,1999,3,21,4,1999,6,5,1999,1,Port au Prince,NA,100s,unspecified,police brutality,crowd dispersal,15
3954,India Kozhikode,11.24802,75.7804,India,2017,5,1,6,2017,16,6,2017,0,Kozhikode,50-99,Volunteers and a line formed of people participating to cook beef and share it with strangers in the streets,People protesting new rules restricting the sale of cattle in markets,"political behavior, process",ignore,15
5019,Kazakhstan Karaganda,49.80187,73.10211,Kazakhstan,1994,2,1,12,1994,16,12,1994,0,Karaganda,NA,5000,Miners of Kazakhstan s Karaganda coal field,labor wage dispute,ignore,15
9404,Ukraine Kiev,50.45466,30.5238,Ukraine,2004,2,22,11,2004,7,12,2004,0,Kiev,>10000,>100000,Viktor A. Yushchenko s supporters,"political behavior, process",accomodation,15
9409,Ukraine Kiev,50.45466,30.5238,Ukraine,2007,1,2,4,2007,17,4,2007,0,Kiev,>10000,35000 - 70000,Supporters of Mr Yanukovych,"political behavior, process",ignore,15
10150,Vietnam Hanoi,21.0245,105.84117,Vietnam,2008,1,1,1,2008,16,1,2008,0,Hanoi,NA,100,Catholics,social restrictions,accomodation,15
10293,Yugoslavia Belgrade,44.78877,20.45212,Yugoslavia,1996,6,27,11,1996,12,12,1996,0,Belgrade,NA,100000+,students and professors,removal of politician,accomodation,15
418,Bahrain Bahrain,26.03333,50.55,Bahrain,1994,1,5,12,1994,19,12,1994,1,Bahrain,NA,100,Shiites,"political behavior, process",arrests,14
868,Bolivia La Paz,-16.5,-68.15,Bolivia,2014,2,22,4,2014,6,5,2014,0,La Paz,2000-4999,2000,military officers,"political behavior, process",accomodation,14
1005,Brazil the University of Brasilia   Rio de Janeiro,-22.86285,-43.22884,Brazil,2008,2,4,4,2008,18,4,2008,0,the University of Brasilia   Rio de Janeiro,NA,600,students,"political behavior, process",accomodation,14
1481,Chile Santiago,-33.45694,-70.64827,Chile,2017,2,1,7,2017,15,7,2017,0,Santiago,50-99,50,women,social restrictions,ignore,14
1730,Colombia Bogota,4.60971,-74.08175,Colombia,2017,2,1,4,2017,15,4,2017,0,Bogota,1000-1999,1000,opposition,"political behavior, process",ignore,14
2092,Cyprus Nicosia,35.17531,33.3642,Cyprus,2013,10,29,4,2013,13,5,2013,0,Nicosia,100-999,150,Kurdish refugees,"political behavior, process",ignore,14
2224,Ecuador Galapagos,-0.67015,-90.87341,Ecuador,2004,7,13,4,2004,27,4,2004,0,Galapagos,NA,300,Galapagos Islands park rangers,"political behavior, process",accomodation,14
2270,Ecuador Quito,-0.22985,-78.52495,Ecuador,2012,1,8,3,2012,22,3,2012,0,Quito,NA,100s,indigenous peoples,"political behavior, process",ignore,14
2318,Egypt Cairo,30.06263,31.24967,Egypt,2011,5,25,2,2011,11,3,2011,1,Cairo,NA,100s-10000s,Youth Movement,removal of politician,crowd dispersal,14
2782,France port of Marseille,43.29589,5.37395,France,2005,6,30,9,2005,14,10,2005,0,port of Marseille,50-99,>50,conf d ration g n rale du travail  CGT,labor wage dispute,ignore,14
3442,Greece Athens,37.98376,23.72784,Greece,2017,6,15,6,2017,29,6,2017,0,Athens,1000-1999,1000,garbage collectors,labor wage dispute,ignore,14
3703,Guyana Georgetown,6.80448,-58.15527,Guyana,2013,2,3,12,2013,17,12,2013,0,Georgetown,NA,100s,Guyana Public Service Union  GPSU,labor wage dispute,ignore,14
4294,Iraq Ramadi,33.42056,43.30778,Iraq,1995,1,17,5,1995,31,5,1995,1,Ramadi,NA,1000,Doulaymi Tribe and Ramadi residents,police brutality,arrests,14
5794,Macedonia Skopje,41.99646,21.43141,Macedonia,2016,1,1,1,2016,15,1,2016,0,Skopje,>10000,tens of thousands,opposition supporters,removal of politician,accomodation,14
6833,Nepal Nationwide,NA,NA,Nepal,2000,17,1,12,2000,15,12,2000,0,Nationwide,NA,100,"All Nepal National Free Students  Union  Revolutionary , a student wing of the underground CPN  Maoist","political behavior, process",accomodation,14
7123,Oman Muscat,21,57,Oman,2018,1,1,1,2018,15,1,2018,0,Muscat,100-999,hundreds,protesters,"price increases, tax policy",ignore,14
7421,Peru Lima,-12.04318,-77.02824,Peru,2014,3,21,3,2014,4,4,2014,0,Lima,2000-4999,1000s,miners,"political behavior, process",ignore,14
7436,Peru Puno,-15.8422,-70.0199,Peru,2011,2,14,5,2011,28,5,2011,1,Puno,NA,10000,Aymara Indians,"political behavior, process",ignore,14
9633,United Kingdom Leeds,53.79648,-1.54785,United Kingdom,2010,12,24,11,2010,8,12,2010,0,Leeds,50-99,60+,students,"price increases, tax policy",ignore,14
63,Albania Tirana,41.3275,19.81889,Albania,2010,3,1,5,2010,14,5,2010,0,Tirana,100-999,200,opposition leaders,"political behavior, process",ignore,13
76,Algeria Algiers,36.73225,3.08746,Algeria,1991,1,25,5,1991,7,6,1991,1,Algiers,NA,10000,muslim fundamentalists,"political behavior, process",killings,13
2905,Germany Berlin,52.52437,13.41053,Germany,2018,11,15,3,2018,28,3,2018,0,Berlin,50-99,50,women,social restrictions,ignore,13
4763,Italy Rome,41.89193,12.51133,Italy,2017,1,24,3,2017,6,4,2017,0,Rome,100-999,100,residents,land farm issue,accomodation,13
4843,Ivory Coast Abidjan,5.35444,-4.00167,Ivory Coast,2003,1,24,1,2003,6,2,2003,1,Abidjan,>10000,100000s,protesters,"political behavior, process",crowd dispersal,13
6132,Mexico Mexico City,19.42847,-99.12766,Mexico,1995,9,25,8,1995,7,9,1995,1,Mexico City,NA,100s,unspecified,"political behavior, process",crowd dispersal,13
7491,Philippines Zamboanga,6.92242,122.06042,Philippines,1996,3,2,7,1996,15,7,1996,1,Zamboanga,NA,10000,Christians,"political behavior, process",crowd dispersal,13
8423,South Korea Seoul,37.566,126.9784,South Korea,2003,18,14,11,2003,27,11,2003,0,Seoul,NA,5000,migrant laborers,"political behavior, process",ignore,13
8462,South Korea Ulsan,35.53722,129.31667,South Korea,1990,6,25,4,1990,8,5,1990,1,Ulsan,NA,2000,workers,labor wage dispute,beatings,13
8764,Syria Qamishli,36.85071,41.17243,Syria,2004,3,3,12,2004,16,12,2004,1,Qamishli,NA,3000,Kurds,"political behavior, process",killings,13
9628,United Kingdom Kirby Misperton,54.20543,-0.80655,United Kingdom,2016,35,20,12,2016,2,1,2017,0,Kirby Misperton,100-999,100s,anti fracking protesters,"political behavior, process",ignore,13
9846,United Kingdom Northern Ireland,54.75844,-2.69531,United Kingdom,1998,8,6,7,1998,19,7,1998,1,Northern Ireland,2000-4999,>3000,"Loyalists, Orange Order, Protestants","political behavior, process",crowd dispersal,13
822,Bolivia eastern provinces,NA,NA,Bolivia,2007,6,3,12,2007,15,12,2007,0,eastern provinces,NA,10000,NA,"political behavior, process",ignore,12
1317,Canada Ontario,43.70011,-79.4163,Canada,1997,1,28,10,1997,9,11,1997,0,Ontario,NA,126000,Ontario Teachers  Federation,"political behavior, process",ignore,12
1907,Costa Rica San Jose,9.93333,-84.08333,Costa Rica,1999,1,29,9,1999,11,10,1999,0,San Jose,NA,100,Indians,"political behavior, process",accomodation,12
2877,Georgia Tbilisi,41.69411,44.83368,Georgia,1995,2,28,6,1995,10,7,1995,0,Tbilisi,NA,100,displaced Abkhaz region Georgians,"political behavior, process",ignore,12
3482,Greece Nationwide,NA,NA,Greece,1995,1,20,3,1995,1,4,1995,0,Nationwide,>10000,Thousands,"farmers, doctors, lawyers and small businesses","price increases, tax policy",ignore,12
6619,Namibia Windhoek,-22.55941,17.08323,Namibia,1997,4,23,6,1997,5,7,1997,0,Windhoek,1000-1999,200-2000+,Ex PLAN Soldiers,"political behavior, process",accomodation,12
8899,Tajikistan Dushanbe,38.53575,68.77905,Tajikistan,1991,1,24,9,1991,6,10,1991,0,Dushanbe,NA,1000,democratic & Islamic parties,"political behavior, process",accomodation,12
9013,Thailand Bangkok,13.75398,100.50144,Thailand,2014,11,22,2,2014,6,3,2014,1,Bangkok,2000-4999,1000s,protesters,removal of politician,ignore,12
9845,United Kingdom Northern Ireland,54.75844,-2.69531,United Kingdom,2012,15,3,12,2012,15,12,2012,1,Northern Ireland,1000-1999,1600+,Loyalists,"political behavior, process",arrests,12
1637,China Liaoyang,41.27194,123.17306,China,2002,2,11,3,2002,22,3,2002,0,Liaoyang,NA,50000,unemployed workers,"political behavior, process",ignore,11
1689,"China Wukan, Guangdong province",22.89128,115.66197,China,2011,11,11,12,2011,22,12,2011,1,"Wukan, Guangdong province",NA,5000,local residents,police brutality,crowd dispersal,11
2864,Georgia Tbilisi,41.69411,44.83368,Georgia,1991,2,5,9,1991,16,9,1991,0,Tbilisi,NA,1000,opposition supporters,"political behavior, process",ignore,11
3697,Guyana Georgetown,6.80448,-58.15527,Guyana,2011,2,28,11,2011,9,12,2011,0,Georgetown,NA,100s,"opposition supporters, Youth Coalition for Transformation  YCT  , A Partnership for National Unity  APNU","political behavior, process",ignore,11
3705,Guyana Linden,6.00809,-58.30714,Guyana,2003,1,6,4,2003,17,4,2003,0,Linden,NA,50,NA,"political behavior, process",ignore,11
6343,Mongolia Ulan Bator,47.90771,106.88324,Mongolia,2006,5,6,4,2006,17,4,2006,0,Ulan Bator,NA,100,NA,"political behavior, process",accomodation,11
6479,Myanmar Sagaing region,23.5,95.5,Myanmar,2012,2,9,11,2012,20,11,2012,0,Sagaing region,NA,100s,Buddhist monks and villagers,land farm issue,NA,11
7201,Pakistan Karachi,24.8608,67.0104,Pakistan,2000,1,29,5,2000,9,6,2000,0,Karachi,NA,50,merchants,"price increases, tax policy",ignore,11
7371,Peru Amazon region,-5,-78.23333,Peru,2017,2,15,8,2017,26,8,2017,0,Amazon region,50-99,50,Indigenous,land farm issue,ignore,11
9026,Thailand Bangkok,13.75398,100.50144,Thailand,2006,8,25,3,2006,5,4,2006,0,Bangkok,NA,100000,PAD,removal of politician,ignore,11
9178,Tunisia Tunis,36.81897,10.16579,Tunisia,2011,1,16,1,2011,27,1,2011,1,Tunis,NA,1000s,Communist Party and Islamist Party,"political behavior, process",crowd dispersal,11
9844,United Kingdom Northern Ireland,54.75844,-2.69531,United Kingdom,2000,12,2,7,2000,13,7,2000,1,Northern Ireland,>10000,10000s,orange order,"political behavior, process",crowd dispersal,11
10139,Venezuela San Cristobal,7.76694,-72.225,Venezuela,2017,12,15,5,2017,26,5,2017,1,San Cristobal,1000-1999,Mass protests,Residents of San Cristobal,"political behavior, process",crowd dispersal,11
10199,Yemen Sana,15.35472,44.20667,Yemen,1998,1,20,6,1998,1,7,1998,1,Sana,NA,1000,protestors,"price increases, tax policy",crowd dispersal,11
163,Argentina Buenos Aires,-34.61315,-58.37723,Argentina,2017,7,10,12,2017,20,12,2017,1,Buenos Aires,>10000,tens of thousands,labor unions,labor wage dispute,crowd dispersal,10
235,Armenia Yerevan,40.18111,44.51361,Armenia,2000,5,25,9,2000,5,10,2000,0,Yerevan,NA,100,small businesses,"political behavior, process",ignore,10
262,Armenia Yerevan,40.18111,44.51361,Armenia,2008,1,20,2,2008,1,3,2008,1,Yerevan,NA,70000,"supporters of the Armenian presidential candidate, Levon Ter Petrosyan","political behavior, process",arrests,10
833,Bolivia La Paz,-16.5,-68.15,Bolivia,1995,14,21,12,1995,31,12,1995,0,La Paz,NA,900,cocoa women,"political behavior, process",accomodation,10
1529,China Dafeng,33.21021,120.55451,China,2001,5,16,12,2001,26,12,2001,1,Dafeng,NA,2000,textile workers,labor wage dispute,beatings,10
3665,"Guinea Faranah, Faranah Region",10.3375,-10.69583,Guinea,2004,1,10,9,2004,20,9,2004,0,"Faranah, Faranah Region",100-999,200+,Students,labor wage dispute,arrests,10
4064,Indonesia Jakarta,-6.21462,106.84513,Indonesia,1993,3,9,11,1993,19,11,1993,0,Jakarta,NA,250,students,social restrictions,ignore,10
5017,Kazakhstan Gazik,NA,NA,Kazakhstan,2009,2,12,4,2009,22,4,2009,0,Gazik,NA,70,Workers of UzenMunayGaz  Uzen Oil and Gas  joint stock company,labor wage dispute,accomodation,10
6606,Namibia Walvis Bay,-22.9575,14.50528,Namibia,2001,5,9,4,2001,19,4,2001,0,Walvis Bay,100-999,700,Kuisebmond Demonstrators,"political behavior, process",ignore,10
6878,Nicaragua Managua,12.13282,-86.2504,Nicaragua,1997,3,30,6,1997,10,7,1997,1,Managua,NA,5000,students,"political behavior, process",crowd dispersal,10
7024,Nigeria Abuja,9.05785,7.49508,Nigeria,2017,28,17,10,2017,27,10,2017,1,Abuja,50-99,50+,"The group of protesters led by activist cum entertainer, Charles Oputa also known as Charly Boy","political behavior, process",ignore,10
7791,Russia Moscow,55.75222,37.61556,Russia,2012,11,6,5,2012,16,5,2012,0,Moscow,2000-4999,1000s,Occupy Abai,"political behavior, process",crowd dispersal,10
8173,South Korea Nationwide,NA,NA,South Korea,1991,3,29,4,1991,9,5,1991,1,Nationwide,NA,120000,students,police brutality,beatings,10
8467,Spain ARCHIDONA,37.09654,-4.38869,Spain,2018,1,1,1,2018,11,1,2018,0,ARCHIDONA,50-99,50,activists,"political behavior, process",ignore,10
10144,Venezuela Valencia,10.16202,-68.00765,Venezuela,2014,8,18,2,2014,28,2,2014,0,Valencia,50-99,50+,opposition activists,"political behavior, process",ignore,10
10443,Zambia Lusaka,-15.40669,28.28713,Zambia,2012,2,18,4,2012,28,4,2012,0,Lusaka,50-99,>50,Zambia National Building Society  ZNBS,labor wage dispute,ignore,10
962,Brazil Northeast Brazil,-6,-42,Brazil,2012,1,1,2,2012,10,2,2012,0,Northeast Brazil,NA,>50,police officers,labor wage dispute,ignore,9
1181,Burundi Bujumbura,-3.38193,29.36142,Burundi,2004,1,16,2,2004,25,2,2004,0,Bujumbura,100-999,100,Peasants,land farm issue,accomodation,9
1355,Central African Republic Bangui,4.36122,18.55496,Central African Republic,1996,5,18,5,1996,27,5,1996,1,Bangui,100-999,200,Soldiers,labor wage dispute,shootings,9
1747,Colombia pan american highway,NA,NA,Colombia,1999,7,1,11,1999,10,11,1999,0,pan american highway,NA,50,farmers,"political behavior, process",ignore,9
2261,Ecuador Quito,-0.22985,-78.52495,Ecuador,2003,1,21,1,2003,30,1,2003,1,Quito,NA,50,students,"price increases, tax policy",arrests,9
4259,Iraq Baghdad,33.34058,44.40088,Iraq,2016,2,20,3,2016,29,3,2016,0,Baghdad,2000-4999,1000s,Sadr supporters,"political behavior, process",accomodation,9
4962,Jordan Amman,31.95522,35.94503,Jordan,2017,1,16,7,2017,25,7,2017,0,Amman,50-99,50,Howeitat,police brutality,arrests,9
4980,Kazakhstan Alma Ata,43.25667,76.92861,Kazakhstan,1992,2,17,6,1992,26,6,1992,0,Alma Ata,NA,5000,"the nationalist movement  Jeltoksan,   and the Repubican Party",removal of politician,ignore,9
5831,Madagascar Antananarivo,-18.91368,47.53613,Madagascar,2009,4,6,3,2009,15,3,2009,1,Antananarivo,2000-4999,1000+,Supporters of Andry Rajoelina,"political behavior, process",shootings,9
6636,Namibia Windhoek,-22.55941,17.08323,Namibia,2006,9,15,6,2006,24,6,2006,0,Windhoek,2000-4999,3000,Shebeen Owners,"political behavior, process",ignore,9
6746,Nepal Kathmandu,27.70169,85.3206,Nepal,2000,15,16,10,2000,25,10,2000,0,Kathmandu,NA,100,opposition parties led by the Communist Party of Nepal United Marxist and Leninist  CPN UML,"price increases, tax policy",arrests,9
6865,Nicaragua Managua,12.13282,-86.2504,Nicaragua,1994,1,24,1,1994,2,2,1994,1,Managua,NA,1000s,transportation workers,"price increases, tax policy",crowd dispersal,9
9173,Tunisia Sidi Bouzid,35.03823,9.48494,Tunisia,2010,1,17,12,2010,26,12,2010,1,Sidi Bouzid,NA,50,unemployed grads,"price increases, tax policy",shootings,9
9417,Ukraine Kiev,50.45466,30.5238,Ukraine,2014,6,19,1,2014,28,1,2014,1,Kiev,100-999,100s,"ultra nationalists, Right Sector","price increases, tax policy",crowd dispersal,9
9887,United Kingdom University of Aberdeen,57.16543,-2.10045,United Kingdom,2018,8,13,3,2018,22,3,2018,0,University of Aberdeen,50-99,50+,Students,labor wage dispute,ignore,9
921,Botswana Gaborone,-24.65451,25.90859,Botswana,2006,1,21,3,2006,29,3,2006,1,Gaborone,100-999,100+,University Students,"price increases, tax policy",arrests,8
1688,China Wenzhou,27.99942,120.66682,China,2014,15,21,7,2014,29,7,2014,1,Wenzhou,100-999,>100,parishoners at Salvation Church,social restrictions,crowd dispersal,8
2219,Ecuador Ambato,-1.24908,-78.61675,Ecuador,1994,5,14,6,1994,22,6,1994,0,Ambato,NA,50,Indians and peasants,"political behavior, process",killings,8
2586,France Mantes la Jolie,48.99048,1.7167,France,1991,8,25,5,1991,2,6,1991,1,Mantes la Jolie,50-99,>50,protesters,"political behavior, process",crowd dispersal,8
3273,Greece Athens,37.98376,23.72784,Greece,2011,19,11,10,2011,19,10,2011,0,Athens,50-99,>50,civil servants,labor wage dispute,ignore,8
4035,India Srinagar,34.08565,74.80555,India,2008,4,23,6,2008,1,7,2008,1,Srinagar,NA,10000,"Muslims, separatists",land farm issue,shootings,8
4040,India Varanasi,25.31668,83.01041,India,2000,1,30,1,2000,7,2,2000,1,Varanasi,NA,500,Hindu hardliners,social restrictions,accomodation,8
4110,Indonesia Jakarta,-6.21462,106.84513,Indonesia,2000,2,15,1,2000,23,1,2000,1,Jakarta,NA,1000,NA,land farm issue,crowd dispersal,8
5046,Kazakhstan Zhanaozen,43.34116,52.86192,Kazakhstan,2010,2,4,3,2010,12,3,2010,0,Zhanaozen,NA,3000,"workers of OzenMunayGaz  Ozen oil and gas  and affiliated enterprises took to the streets, demanding a pay rise, the company s nationalization and a management change",labor wage dispute,ignore,8
5805,Madagascar Antananarivo,-18.91368,47.53613,Madagascar,1991,1,11,6,1991,19,6,1991,0,Antananarivo,>10000,100000+,Opposition Parties    Supporters,"political behavior, process",ignore,8
6814,Nepal Katmandu,27.70169,85.3206,Nepal,1990,1,18,2,1990,26,2,1990,0,Katmandu,NA,1000,"students, political militants, banned political parties, United Left Front, Nepali Congress party","political behavior, process",arrests,8
6915,Niger Diffa Region,16,13.5,Niger,1998,3,21,2,1998,1,3,1998,1,Diffa Region,50-99,50+,Soldiers,labor wage dispute,ignore,8
7439,Peru San Martin state,NA,NA,Peru,2002,9,25,7,2002,2,8,2002,0,San Martin state,NA,5000,farmers,"political behavior, process",crowd dispersal,8
7718,"Russia Chita, Siberia",52.03171,113.50087,Russia,2016,1,15,1,2016,23,1,2016,0,"Chita, Siberia",50-99,>50,doctors; nurses; workers,labor wage dispute,ignore,8
7836,Russia Priargunsk,50.3691,119.1012,Russia,2016,2,15,1,2016,23,1,2016,0,Priargunsk,50-99,>50,teachers,labor wage dispute,ignore,8
7837,Russia Primorye,44,133,Russia,2016,3,15,1,2016,23,1,2016,0,Primorye,100-999,at least 500,workers,labor wage dispute,ignore,8
8778,Taiwan Taipei,25.04776,121.53185,Taiwan,1990,3,14,3,1990,22,3,1990,0,Taipei,NA,3000,Students,"political behavior, process",ignore,8
8913,Tajikistan Kurgan Tyube,37.83667,68.7775,Tajikistan,1997,2,26,2,1997,6,3,1997,0,Kurgan Tyube,NA,3000,locals,"political behavior, process",ignore,8
9072,Thailand Bangkok,13.75398,100.50144,Thailand,2008,16,25,11,2008,3,12,2008,1,Bangkok,NA,1000,PAD,removal of politician,crowd dispersal,8
9289,Uganda Kampala,0.31628,32.58219,Uganda,1990,2,3,12,1990,11,12,1990,0,Kampala,5000-10000,7000,Students,"political behavior, process",ignore,8
9586,United Kingdom England and Wales,51.32539,-2.41499,United Kingdom,2000,17,7,9,2000,15,9,2000,0,England and Wales,2000-4999,1000s,farm workers and taxi drivers,"price increases, tax policy",crowd dispersal,8
51,Albania Tirana,41.3275,19.81889,Albania,1994,1,5,8,1994,12,8,1994,0,Tirana,2000-4999,2500,former political prisoners,"political behavior, process",ignore,7
92,Algeria Annaba,36.9,7.76667,Algeria,2017,2,1,8,2017,8,8,2017,0,Annaba,2000-4999,thousands,women,social restrictions,ignore,7
173,Argentina Buenos Aires,-34.61315,-58.37723,Argentina,2010,3,8,12,2010,15,12,2010,0,Buenos Aires,NA,6000,homeless immigrants & migrants,social restrictions,accomodation,7
834,Bolivia La Paz,-16.5,-68.15,Bolivia,2003,1,12,2,2003,19,2,2003,1,La Paz,NA,7000,"police officers, poor Indian majority, average citizens","price increases, tax policy",crowd dispersal,7
840,Bolivia La Paz,-16.5,-68.15,Bolivia,1995,9,2,5,1995,9,5,1995,0,La Paz,NA,1000,"teachers  union, which is dominated by the Marxist leaning Revolutionary Workers Party  POR",labor wage dispute,accomodation,7
955,Brazil Espirito Santo,-20,-40.75,Brazil,2017,1,4,2,2017,11,2,2017,0,Espirito Santo,50-99,a few dozen,police,labor wage dispute,crowd dispersal,7
1089,Bulgaria Sofia,42.69751,23.32415,Bulgaria,2005,1,7,1,2005,14,1,2005,0,Sofia,50-99,50,protesters,land farm issue,ignore,7
1545,China Guangzhou,23.11667,113.25,China,2016,5,17,2,2016,24,2,2016,0,Guangzhou,100-999,Hundreds of workers,Workers at a stainless steel factory,labor wage dispute,crowd dispersal,7
1737,"Colombia Caloto, and Cauca",3.0389,-76.36043,Colombia,2005,5,6,11,2005,13,11,2005,0,"Caloto, and Cauca",NA,1000,Indians,"political behavior, process",crowd dispersal,7
2248,Ecuador Quito,-0.22985,-78.52495,Ecuador,1997,2,29,1,1997,5,2,1997,0,Quito,NA,100,Ecuadorians,"political behavior, process",ignore,7
3389,Greece Athens,37.98376,23.72784,Greece,2013,10,9,7,2013,16,7,2013,0,Athens,50-99,>50,"local government employees, police officers","political behavior, process",ignore,7
3828,Honduras Tegucigalpa,14.0818,-87.20681,Honduras,1997,4,5,5,1997,12,5,1997,0,Tegucigalpa,NA,3000,Indians,"price increases, tax policy",crowd dispersal,7
4024,India Srinagar,34.08565,74.80555,India,1995,1,11,5,1995,18,5,1995,1,Srinagar,NA,50,"Muslims, separatists","political behavior, process",shootings,7
4126,Indonesia Medan,3.58333,98.66667,Indonesia,1994,3,14,4,1994,21,4,1994,1,Medan,NA,50000,unions,labor wage dispute,crowd dispersal,7
4767,Italy Sicily,37.62304,13.93457,Italy,2017,6,15,7,2017,22,7,2017,0,Sicily,50-99,50,Five Star Movement,land farm issue,ignore,7
5026,Kazakhstan Kentau,43.51672,68.50463,Kazakhstan,1997,9,29,10,1997,5,11,1997,0,Kentau,NA,200,workers of the Karatau joint stock company,labor wage dispute,ignore,7
5210,Kenya Nairobi,-1.28333,36.81667,Kenya,2003,1,14,9,2003,21,9,2003,1,Nairobi,50-99,>50,students,police brutality,accomodation,7
5393,Kyrgyzstan Bishkek,42.87,74.59,Kyrgyzstan,2006,4,2,11,2006,9,11,2006,0,Bishkek,NA,1000,pro reform,"political behavior, process",crowd dispersal,7
5394,Kyrgyzstan Bishkek,42.87,74.59,Kyrgyzstan,2007,1,12,4,2007,19,4,2007,0,Bishkek,NA,8000,pro reform,"political behavior, process",accomodation,7
5551,Lebanon Baaouarta,33.74,35.50056,Lebanon,2014,1,17,1,2014,24,1,2014,0,Baaouarta,50-99,>50,"residents, Ayyash clan",land farm issue,ignore,7
5565,Lebanon Beirut,33.89332,35.50157,Lebanon,2017,1,1,6,2017,8,6,2017,0,Beirut,2000-4999,thousands,residents,"political behavior, process",ignore,7
5735,Macedonia Eastern Macedonia,41.40544,23.09373,Macedonia,2002,7,19,11,2002,26,11,2002,0,Eastern Macedonia,100-999,400,miners,labor wage dispute,accomodation,7
6200,Mexico Tepoztlan,18.96424,-99.09972,Mexico,1995,10,3,9,1995,10,9,1995,1,Tepoztlan,NA,100s,local peasants,land farm issue,accomodation,7
6547,Namibia Okahao,-17.89218,15.0715,Namibia,1997,10,6,11,1997,13,11,1997,0,Okahao,100-999,200-400,Ex fighters,"political behavior, process",ignore,7
6590,Namibia Swakopmund,-22.67842,14.52663,Namibia,2013,11,16,10,2013,23,10,2013,0,Swakopmund,50-99,>50,DRC residents,"political behavior, process",crowd dispersal,7
6868,Nicaragua Managua,12.13282,-86.2504,Nicaragua,1994,4,23,8,1994,30,8,1994,1,Managua,NA,NA,transportation workers,"price increases, tax policy",crowd dispersal,7
6908,Nicaragua Managua,12.13282,-86.2504,Nicaragua,2013,1,16,6,2013,23,6,2013,0,Managua,NA,50+,"mob, suspected supporters of the President","political behavior, process",ignore,7
7194,Pakistan Karachi,24.8608,67.0104,Pakistan,1994,2,6,5,1994,13,5,1994,1,Karachi,NA,50,Mohajirs,"political behavior, process",accomodation,7
7284,Panama Panama City,8.9936,-79.51973,Panama,1995,2,3,8,1995,10,8,1995,1,Panama City,NA,100s,labor unions,"political behavior, process",crowd dispersal,7
7317,Papua New Guinea Port Moresby,-9.47723,147.15089,Papua New Guinea,2001,4,21,6,2001,28,6,2001,1,Port Moresby,NA,1000,college & high school students,"political behavior, process",ignore,7
7361,Paraguay Asuncion,-25.28646,-57.647,Paraguay,2017,1,25,3,2017,1,4,2017,0,Asuncion,2000-4999,thousands,businessmen,"price increases, tax policy",ignore,7
7385,Peru Cuzco,-13.52264,-71.96734,Peru,2012,5,22,5,2012,29,5,2012,1,Cuzco,NA,100s,NA,"political behavior, process",crowd dispersal,7
7467,Philippines Manila,14.6042,120.9822,Philippines,2000,7,27,11,2000,4,12,2000,0,Manila,NA,100000,"Catholic Church, the united opposition, the Communist Party, and elite business groups",removal of politician,ignore,7
7912,Senegal natonal,NA,NA,Senegal,2010,3,14,7,2010,21,7,2010,1,natonal,100-999,100s,protesters,"price increases, tax policy",beatings,7
8048,South Africa Capetown,-33.9224,18.41566,South Africa,2015,2,18,3,2015,25,3,2015,0,Capetown,100-999,100s,Rhodes Must Fall  university student group,"political behavior, process",accomodation,7
8313,South Korea Seoul,37.566,126.9784,South Korea,1996,7,14,8,1996,21,8,1996,1,Seoul,NA,10600,students,"political behavior, process",crowd dispersal,7
9153,Timor Leste Dili,-8.55861,125.57361,Timor Leste,2006,1,28,4,2006,5,5,2006,1,Dili,NA,100,ex soldiers,"political behavior, process",ignore,7
9212,Turkey Cizre,37.33024,42.18484,Turkey,1990,1,20,3,1990,27,3,1990,1,Cizre,NA,1000,Kurds,"political behavior, process",killings,7
9961,USSR Samtredia,NA,NA,USSR,1990,30,25,7,1990,1,8,1990,0,Samtredia,1000-1999,> 800,Demonstrators,"political behavior, process",ignore,7
10049,Venezuela Caracas,10.48801,-66.87919,Venezuela,2002,6,1,10,2002,8,10,2002,0,Caracas,NA,200,police officers,"political behavior, process",ignore,7
10320,Yugoslavia Kraljevo,NA,NA,Yugoslavia,2000,2,17,3,2000,24,3,2000,0,Kraljevo,5000-10000,5000,protesters,"political behavior, process",accomodation,7
468,Bangladesh Dhaka,23.7104,90.40744,Bangladesh,1990,10,28,11,1990,4,12,1990,1,Dhaka,NA,100000,Opposition,removal of politician,shootings,6
800,Bhutan Nationwide,NA,NA,Bhutan,1990,1,20,9,1990,26,9,1990,0,Nationwide,NA,100,pro democracy,"political behavior, process",shootings,6
934,Brazil Brasilia,-10,-55,Brazil,2009,3,2,12,2009,8,12,2009,0,Brasilia,NA,150,Brazilians,"political behavior, process",arrests,6
1008,Bulgaria Kardzali,41.65,25.36667,Bulgaria,1990,15,17,7,1990,23,7,1990,0,Kardzali,1000-1999,1000,slavic Bulgarians,"political behavior, process",ignore,6
1050,Bulgaria Sofia,42.69751,23.32415,Bulgaria,2005,3,2,7,2005,8,7,2005,0,Sofia,50-99,50,residents,land farm issue,ignore,6
1699,China Yuandu,28.26364,116.04724,China,2000,12,17,8,2000,23,8,2000,1,Yuandu,NA,20000,farmers,"price increases, tax policy",arrests,6
2247,Ecuador Quito,-0.22985,-78.52495,Ecuador,1996,2,15,3,1996,21,3,1996,0,Quito,NA,500,drivers,"political behavior, process",crowd dispersal,6
2316,Egypt Cairo,30.06263,31.24967,Egypt,2011,3,12,2,2011,18,2,2011,0,Cairo,NA,100s,protesters,"political behavior, process",ignore,6
3572,Guatemala Lake Izabal,15.5,-89.16667,Guatemala,2006,1,16,9,2006,22,9,2006,0,Lake Izabal,NA,2000,NA,land farm issue,ignore,6
3687,Guyana Georgetown,6.80448,-58.15527,Guyana,1998,5,17,6,1998,23,6,1998,1,Georgetown,NA,100,PNC supporters,"political behavior, process",crowd dispersal,6
3832,Honduras Tegucigalpa,14.0818,-87.20681,Honduras,1999,3,7,5,1999,13,5,1999,0,Tegucigalpa,NA,8000,Hospital workers,labor wage dispute,ignore,6
4037,India State of Tamil Nadu,13.08784,80.27847,India,2017,1,17,1,2017,23,1,2017,1,State of Tamil Nadu,2000-4999,Thousands,Southern Indians protesting on behalf of their cultural identity,"political behavior, process",arrests,6
4201,Iran Tehran,35.69439,51.42151,Iran,2003,1,10,6,2003,16,6,2003,1,Tehran,NA,1000,"students, pro reform","political behavior, process",arrests,6
4938,Japan Tokyo,35.6895,139.69171,Japan,2007,3,14,10,2007,20,10,2007,0,Tokyo,NA,170,"Okinawans  chairman of the assembly, local authorities, and civic group leaders","political behavior, process",accomodation,6
5004,Kazakhstan Almaty,43.25667,76.92861,Kazakhstan,2003,1,14,6,2003,20,6,2003,0,Almaty,NA,700,Democratic Choice,land farm issue,ignore,6
5354,Kuwait Kuwait City,29.36972,47.97833,Kuwait,2008,2,28,7,2008,3,8,2008,1,Kuwait City,NA,100,Asian Workers  from Bangladesh,labor wage dispute,beatings,6
6502,Namibia Eenhana,-17.46667,16.33333,Namibia,2013,3,28,1,2013,3,2,2013,0,Eenhana,100-999,>800,struggle children,labor wage dispute,ignore,6
7327,Papua New Guinea Port Moresby,-9.47723,147.15089,Papua New Guinea,2001,1,14,3,2001,20,3,2001,0,Port Moresby,NA,100,soldiers,"political behavior, process",ignore,6
7503,Poland Postolowo,54.13153,18.46487,Poland,2017,1,4,6,2017,10,6,2017,0,Postolowo,50-99,50,environmentalists,land farm issue,ignore,6
7731,Russia Krasnodar,45.04484,38.97603,Russia,2016,4,17,1,2016,23,1,2016,0,Krasnodar,100-999,hundreds,Lorry Drivers,"price increases, tax policy",ignore,6
8018,South Africa Alexandra,-26.10528,28.09884,South Africa,1992,4,26,3,1992,1,4,1992,1,Alexandra,100-999,100+,Alexandra Residents,"political behavior, process",crowd dispersal,6
8268,South Korea Seoul,37.566,126.9784,South Korea,1992,7,11,8,1992,17,8,1992,0,Seoul,NA,1500,students,"political behavior, process",ignore,6
8316,South Korea Seoul,37.566,126.9784,South Korea,2004,6,3,3,2004,9,3,2004,0,Seoul,NA,540,Uri party parliamentarians and supporters,"political behavior, process",ignore,6
8510,"Spain Hornachuelos, Andalusia",37.83333,-5.23333,Spain,2012,13,16,8,2012,22,8,2012,0,"Hornachuelos, Andalusia",100-999,500,unemployed farmworkers,"political behavior, process",ignore,6
8900,Tajikistan Dushanbe,38.53575,68.77905,Tajikistan,1992,1,29,4,1992,5,5,1992,0,Dushanbe,NA,1000,democratic & Islamic parties,"political behavior, process",ignore,6
9048,Thailand Bangkok,13.75398,100.50144,Thailand,2007,11,30,5,2007,5,6,2007,0,Bangkok,NA,3000,television station PTV,social restrictions,ignore,6
9078,Thailand Bangkok,13.75398,100.50144,Thailand,2009,5,8,4,2009,14,4,2009,0,Bangkok,NA,200000,red shirts; aka United Front for Democracy against Dictatorship,removal of politician,crowd dispersal,6
9093,Thailand Bangkok,13.75398,100.50144,Thailand,2011,2,1,2,2011,7,2,2011,0,Bangkok,NA,1000s,Thai nationalists,removal of politician,ignore,6
9511,United Kingdom Blackheath,51.4647,0.0079,United Kingdom,2009,19,28,8,2009,3,9,2009,0,Blackheath,2000-4999,1000s,Climate Camp,"political behavior, process",ignore,6
10117,Venezuela Caracas,10.48801,-66.87919,Venezuela,2011,1,1,4,2011,7,4,2011,1,Caracas,NA,>50,prisoners,police brutality,shootings,6
10222,"Yemen Sana,  Ta izz",13.31128,44.10852,Yemen,1992,1,9,12,1992,15,12,1992,1,"Sana,  Ta izz",NA,100,Sons of Yemen League,"price increases, tax policy",accomodation,6
318,Azerbaijan Baku,40.37767,49.89201,Azerbaijan,1994,5,4,10,1994,9,10,1994,1,Baku,NA,100,OPON Troops,"political behavior, process",accomodation,5
497,Bangladesh Dhaka,23.7104,90.40744,Bangladesh,1995,10,16,10,1995,21,10,1995,1,Dhaka,NA,350,Awami League,removal of politician,killings,5
720,Belarus Minsk,53.9,27.56667,Belarus,2006,1,19,3,2006,24,3,2006,0,Minsk,5000-10000,10000,opposition groups,"political behavior, process",arrests,5
839,Bolivia La Paz,-16.5,-68.15,Bolivia,1995,8,24,4,1995,29,4,1995,1,La Paz,NA,100,"farmers, journalists","political behavior, process",ignore,5
877,Bolivia Potosi,-19.58361,-65.75306,Bolivia,1996,12,19,12,1996,24,12,1996,1,Potosi,NA,100,miners,"political behavior, process",crowd dispersal,5
1276,Cambodia Phnom Phen,11.56245,104.91601,Cambodia,2003,2,9,6,2003,14,6,2003,1,Phnom Phen,NA,1000,garment workers,"price increases, tax policy",crowd dispersal,5
1279,Cambodia Phnom Phen,11.56245,104.91601,Cambodia,2006,2,5,3,2006,10,3,2006,0,Phnom Phen,NA,50,farmers,land farm issue,ignore,5
1658,China Panlong,32.3911,105.702,China,2006,1,10,1,2006,15,1,2006,1,Panlong,NA,5000,locals,land farm issue,beatings,5
1665,China Shanghai,31.22222,121.45806,China,2017,4,5,6,2017,10,6,2017,0,Shanghai,100-999,hundreds,home buyers,land farm issue,accomodation,5
1837,Congo Brazzaville Loudima,NA,NA,Congo Brazzaville,1997,1,1,2,1997,6,2,1997,1,Loudima,100-999,300,Army Recruits,"political behavior, process",ignore,5
2182,Dominican Republic Santo Domingo,18.47186,-69.89232,Dominican Republic,1997,4,5,9,1997,10,9,1997,1,Santo Domingo,NA,100s,Coordinator of Popular Organizations,"political behavior, process",crowd dispersal,5
2290,Egypt Cairo,30.06263,31.24967,Egypt,2011,20,16,12,2011,21,12,2011,1,Cairo,NA,100s-1000s,protesters and women,"political behavior, process",beatings,5
2295,Egypt Cairo,30.06263,31.24967,Egypt,2002,1,29,3,2002,3,4,2002,0,Cairo,NA,6000,students,"political behavior, process",ignore,5
2338,Egypt Cairo,30.06263,31.24967,Egypt,2012,9,19,6,2012,24,6,2012,0,Cairo,NA,10000,Muslim Brotherhood,"political behavior, process",ignore,5
2356,Egypt Cairo,30.06263,31.24967,Egypt,2016,6,1,5,2016,6,5,2016,0,Cairo,2000-4999,more than 2000,journalists,"political behavior, process",arrests,5
2369,Egypt Tukh,30.35487,31.20105,Egypt,2002,2,29,3,2002,3,4,2002,0,Tukh,NA,15000,students,"political behavior, process",ignore,5
2386,El Salvador San Salvador,13.68935,-89.18718,El Salvador,1996,1,4,1,1996,9,1,1996,0,San Salvador,NA,300,city workers,labor wage dispute,ignore,5
2887,Georgia Tbilisi,41.69411,44.83368,Georgia,2003,2,9,11,2003,14,11,2003,0,Tbilisi,NA,20000,opposition supporters,"political behavior, process",accomodation,5
3100,Germany Hambach Forest,50.9,6.43333,Germany,2018,10,1,3,2018,6,3,2018,1,Hambach Forest,50-99,50,environmentalists,land farm issue,ignore,5
3769,Haiti Port au Prince,18.54349,-72.33881,Haiti,2003,2,11,12,2003,16,12,2003,0,Port au Prince,NA,300-1000s,students,removal of politician,crowd dispersal,5
3940,India Hyderabad,17.38405,78.45636,India,2009,4,4,12,2009,9,12,2009,1,Hyderabad,NA,50,"Telangana separatists, students","political behavior, process",arrests,5
3949,"India Jammu, Srinagar",34.08565,74.80555,India,2008,7,4,8,2008,9,8,2008,1,"Jammu, Srinagar",NA,1000,"Hindus, Muslims",land farm issue,killings,5
3961,India Maharashtra,19.28911,76.95374,India,1994,1,17,1,1994,22,1,1994,1,Maharashtra,NA,4000,Shiv Sena  hardline Hindu party,"political behavior, process",shootings,5
4164,Iran Tehran,35.69439,51.42151,Iran,1991,1,7,7,1991,12,7,1991,1,Tehran,NA,100000,"bus riders, poor","price increases, tax policy",crowd dispersal,5
5277,Kenya Nairobi,-1.28333,36.81667,Kenya,2012,24,29,2,2012,5,3,2012,0,Nairobi,100-999,100s,staff at the Kenya Broadcasting Corporation,labor wage dispute,accomodation,5
5426,Kyrgyzstan Dzhalal Abad,40.93333,73,Kyrgyzstan,2013,21,31,5,2013,5,6,2013,1,Dzhalal Abad,NA,1500,Ata Jurt party,"political behavior, process",accomodation,5
5457,Kyrgyzstan state prisons,NA,NA,Kyrgyzstan,2011,10,25,3,2011,30,3,2011,0,state prisons,NA,100s,convicts in state prisons,police brutality,ignore,5
5580,Lebanon Beruit,NA,NA,Lebanon,2008,4,6,5,2008,11,5,2008,1,Beruit,NA,1000,hizbullah,"price increases, tax policy",crowd dispersal,5
6255,Moldova Chisinau,47.00556,28.8575,Moldova,2003,9,25,11,2003,30,11,2003,0,Chisinau,5000-10000,5000,"students, opposition parties, Moldovans","political behavior, process",accomodation,5
6488,Myanmar Yangon,16.80528,96.15611,Myanmar,2014,6,24,3,2014,29,3,2014,0,Yangon,50-99,>50,Migyaungkan protesters,land farm issue,ignore,5
6564,Namibia Oshakati,-17.78833,15.70436,Namibia,1997,5,4,7,1997,9,7,1997,1,Oshakati,100-999,400-600+,Ex PLAN Soldiers,"political behavior, process",crowd dispersal,5
6574,Namibia Outapi,-17.5,14.98333,Namibia,2013,2,16,1,2013,21,1,2013,0,Outapi,50-99,>50,struggle children,labor wage dispute,ignore,5
6741,Nepal Kathmandu,27.70169,85.3206,Nepal,2010,2,1,5,2010,6,5,2010,0,Kathmandu,NA,100000,Maoists,"political behavior, process",ignore,5
6760,Nepal Kathmandu,27.70169,85.3206,Nepal,2003,4,19,12,2003,24,12,2003,1,Kathmandu,NA,100,Student Unions,"political behavior, process",accomodation,5
6827,Nepal Nationwide,NA,NA,Nepal,2006,3,6,4,2006,11,4,2006,1,Nationwide,NA,1000,seven main political parties,"political behavior, process",arrests,5
6858,Nicaragua Managua,12.13282,-86.2504,Nicaragua,1990,1,11,5,1990,16,5,1990,0,Managua,NA,60000,"unions, Sandinistas","political behavior, process",crowd dispersal,5
7171,Pakistan Islamabad,33.72148,73.04329,Pakistan,2018,2,1,2,2018,6,2,2018,0,Islamabad,5000-10000,">5,000",Protesters demanding Pashtun rights,social restrictions,ignore,5
7298,Panama Panama City,8.9936,-79.51973,Panama,2005,2,23,5,2005,28,5,2005,1,Panama City,NA,1000s-10000,"labor unions, womens groups, students","political behavior, process",arrests,5
7427,Peru Lima,-12.04318,-77.02824,Peru,2006,2,27,8,2006,1,9,2006,0,Lima,NA,50,farmers,"political behavior, process",accomodation,5
7468,Philippines Manila,14.6042,120.9822,Philippines,2001,2,26,4,2001,1,5,2001,1,Manila,NA,100000,supporters of Estrada,removal of politician,ignore,5
7583,Qatar Doha,25.28545,51.53096,Qatar,2001,1,8,11,2001,13,11,2001,0,Doha,NA,100,Antiglobalist Activists,"political behavior, process",ignore,5
8649,Suriname Paramaribo,5.86638,-55.16682,Suriname,1994,1,18,11,1994,23,11,1994,1,Paramaribo,NA,4000,students,"price increases, tax policy",arrests,5
8751,Sweden Stockholm,59.32938,18.06871,Sweden,2013,1,19,5,2013,24,5,2013,1,Stockholm,100-999,100s,inmigrants,police brutality,crowd dispersal,5
8775,Taiwan Tainan,22.99083,120.21333,Taiwan,2006,10,17,9,2006,22,9,2006,0,Tainan,NA,200,Tainan City Councillor Hsieh Lung chieh,removal of politician,ignore,5
8796,Taiwan Taipei,25.04776,121.53185,Taiwan,1992,4,19,4,1992,24,4,1992,0,Taipei,NA,1000,Democratic Progressive Party Supporters,"political behavior, process",beatings,5
9130,Thailand NAKHON RATCHASIMA,14.97066,102.10196,Thailand,1998,2,8,2,1998,13,2,1998,0,NAKHON RATCHASIMA,NA,30000,"Front of Northeastern People, Confederation of Small scale Northeastern Farmers","political behavior, process",accomodation,5
10312,Yugoslavia Belgrade,44.78877,20.45212,Yugoslavia,2001,3,12,11,2001,17,11,2001,0,Belgrade,100-999,100,police,"political behavior, process",ignore,5
171,Argentina Buenos Aires,-34.61315,-58.37723,Argentina,2002,5,11,3,2002,15,3,2002,0,Buenos Aires,NA,1000,unemployed workers,labor wage dispute,ignore,4
179,Argentina Buenos Aires,-34.61315,-58.37723,Argentina,2004,2,2,2,2004,6,2,2004,0,Buenos Aires,NA,1000,NA,"price increases, tax policy",accomodation,4
319,Azerbaijan Baku,40.37767,49.89201,Azerbaijan,1995,1,13,3,1995,17,3,1995,1,Baku,NA,700,Military Forces from the Interior Ministry,"political behavior, process",accomodation,4
701,Belarus Minsk,53.9,27.56667,Belarus,1996,9,19,11,1996,23,11,1996,1,Minsk,50-99,50+,protesters,"political behavior, process",crowd dispersal,4
874,Bolivia Panduro,-17.48849,-67.44373,Bolivia,2016,2,22,8,2016,26,8,2016,1,Panduro,100-999,over 100 arrested,National Federation of Mining Cooperatives of Bolivia,labor wage dispute,crowd dispersal,4
1091,Bulgaria Sofia,42.69751,23.32415,Bulgaria,2005,4,18,11,2005,22,11,2005,0,Sofia,100-999,100s,teachers,labor wage dispute,accomodation,4
1548,China Gulei Peninsula,23.8505,117.61515,China,2008,2,28,2,2008,3,3,2008,1,Gulei Peninsula,NA,10000,locals,"political behavior, process",beatings,4
1550,"China Haining, Zhejiang Province",30.53629,120.68638,China,2011,9,15,9,2011,19,9,2011,1,"Haining, Zhejiang Province",NA,500,local residents,"political behavior, process",arrests,4
1629,China Kashgar,39.47066,75.98951,China,1990,2,8,4,1990,12,4,1990,1,Kashgar,NA,50,"ethnic minorities, muslims","political behavior, process",killings,4
1650,China Maoming,22.07113,110.90714,China,2014,3,27,3,2014,31,3,2014,1,Maoming,50-99,>50,demonstrators,land farm issue,crowd dispersal,4
2111,Cyprus Nicosia,35.17531,33.3642,Cyprus,2012,4,19,3,2012,23,3,2012,1,Nicosia,100-999,100,sheep and goat farmers,labor wage dispute,accomodation,4
2160,Dominican Republic Salcedo,19.37762,-70.41762,Dominican Republic,1999,1,15,3,1999,19,3,1999,1,Salcedo,NA,100s,unspecified,"price increases, tax policy",shootings,4
2250,Ecuador Quito,-0.22985,-78.52495,Ecuador,1999,1,11,1,1999,15,1,1999,1,Quito,NA,50,"University and high school students, workers","political behavior, process",crowd dispersal,4
2328,Egypt Cairo,30.06263,31.24967,Egypt,2013,5,30,6,2013,4,7,2013,1,Cairo,NA,100000,Tamarod,removal of politician,accomodation,4
2611,France Papeete  French Polynesia,-17.53733,-149.5665,France,1995,9,30,6,1995,4,7,1995,0,Papeete  French Polynesia,5000-10000,10000,"Tahitians, anti nuclear protesters, pro independence movement","political behavior, process",ignore,4
2831,"Gabon Libreville, Estuaire Province",0.39241,9.45356,Gabon,2008,1,22,4,2008,26,4,2008,0,"Libreville, Estuaire Province",100-999,100+,protesters,"price increases, tax policy",crowd dispersal,4
2841,Gabon Port Gentil,-0.71933,8.78151,Gabon,1990,5,27,5,1990,31,5,1990,0,Port Gentil,100-999,hundreds,supporters of the Gabon Progress Party,removal of politician,ignore,4
2880,Georgia Tbilisi,41.69411,44.83368,Georgia,2007,2,2,11,2007,6,11,2007,0,Tbilisi,NA,10000,opposition supporters,"political behavior, process",ignore,4
2896,Georgia Tbilisi,41.69411,44.83368,Georgia,2009,1,9,4,2009,13,4,2009,0,Tbilisi,NA,10000,opposition supporters,removal of politician,ignore,4
3232,"Ghana Kumasi, Ashanti District",6.68848,-1.62443,Ghana,2012,3,24,2,2012,28,2,2012,0,"Kumasi, Ashanti District",100-999,100+,Polytechnic Teachers Association of Ghana,labor wage dispute,ignore,4
3263,Greece Athens,37.98376,23.72784,Greece,2011,5,26,5,2011,30,5,2011,0,Athens,>10000,20000,"protesters, youth, Greeks,  indignants","political behavior, process",ignore,4
3594,Guinea-Bissau Bissau,11.86357,-15.59767,Guinea-Bissau,2004,2,6,10,2004,10,10,2004,1,Bissau,100-999,100s,soldiers,labor wage dispute,accomodation,4
3706,Guyana Linden,6.00809,-58.30714,Guyana,2008,3,16,6,2008,20,6,2008,0,Linden,NA,3000,NA,"price increases, tax policy",ignore,4
3990,India New Delhi,28.65195,77.23149,India,2011,2,5,4,2011,9,4,2011,0,New Delhi,NA,1000s,unspecified,"political behavior, process",accomodation,4
4145,Iran Ahvaz,31.31901,48.6842,Iran,2017,2,16,2,2017,20,2,2017,0,Ahvaz,100-999,increasingly large gatherings,residents,removal of politician,ignore,4
4196,Iran Tehran,35.69439,51.42151,Iran,2002,4,9,11,2002,13,11,2002,0,Tehran,NA,1000,students,"political behavior, process",ignore,4
5185,Kenya Nairobi,-1.28333,36.81667,Kenya,1997,1,23,2,1997,27,2,1997,0,Nairobi,5000-10000,thousands,university students,police brutality,ignore,4
5745,Macedonia Skopje,41.99646,21.43141,Macedonia,1995,4,23,3,1995,27,3,1995,1,Skopje,100-999,400,prisoners,"political behavior, process",crowd dispersal,4
5787,Macedonia Skopje,41.99646,21.43141,Macedonia,2017,1,1,3,2017,5,3,2017,0,Skopje,5000-10000,thousands,nationalists,"political behavior, process",ignore,4
5827,Madagascar Antananarivo,-18.91368,47.53613,Madagascar,2002,1,7,1,2002,11,1,2002,1,Antananarivo,>10000,10000s,Supporters of Marc Ravalomanana,"political behavior, process",ignore,4
5860,Madagascar Toliary,-23.35,43.66667,Madagascar,1993,1,28,5,1993,1,6,1993,0,Toliary,50-99,50+,Supporters of Former President Ratsiraka,"political behavior, process",killings,4
6056,"Mali Bamako, Segou",13.54019,-4.37949,Mali,1993,1,5,4,1993,9,4,1993,1,"Bamako, Segou",100-999,hundreds,Students,"political behavior, process",ignore,4
6075,Mauritius Port Louis,-20.16194,57.49889,Mauritius,2005,1,8,7,2005,12,7,2005,0,Port Louis,100-999,388,Health Care Assistants,labor wage dispute,crowd dispersal,4
6191,Mexico San Salvador Atenco,19.5517,-98.91867,Mexico,2002,1,11,7,2002,15,7,2002,1,San Salvador Atenco,NA,100s-1000,farmers,land farm issue,arrests,4
6228,Moldova Chisinau,47.00556,28.8575,Moldova,1999,1,18,1,1999,22,1,1999,1,Chisinau,2000-4999,>3000,"demonstrators, unions",labor wage dispute,ignore,4
6419,Mozambique Maputo,-25.96553,32.58322,Mozambique,2005,1,18,10,2005,22,10,2005,0,Maputo,50-99,50,Students,labor wage dispute,beatings,4
6474,Myanmar Rangoon,16.80528,96.15611,Myanmar,2007,13,18,9,2007,22,9,2007,0,Rangoon,NA,100,Buddhist monks,"price increases, tax policy",ignore,4
6546,Namibia Okahandja,-21.98333,16.91667,Namibia,2015,4,16,2,2015,20,2,2015,0,Okahandja,50-99,50+,residents,removal of politician,crowd dispersal,4
6778,Nepal Kathmandu,27.70169,85.3206,Nepal,2006,1,20,1,2006,24,1,2006,0,Kathmandu,NA,1000,NA,"political behavior, process",arrests,4
6828,Nepal Nationwide,NA,NA,Nepal,2002,2,24,4,2002,28,4,2002,0,Nationwide,NA,100,outlawed Communist Party of Nepal  Maoist,"political behavior, process",ignore,4
6876,Nicaragua Managua,12.13282,-86.2504,Nicaragua,1997,1,15,4,1997,19,4,1997,0,Managua,NA,20000,Sandinistas,land farm issue,ignore,4
6886,Nicaragua Managua,12.13282,-86.2504,Nicaragua,1999,4,29,4,1999,3,5,1999,1,Managua,NA,1000s,"transportation workers, university students","price increases, tax policy",crowd dispersal,4
6906,Nicaragua Managua,12.13282,-86.2504,Nicaragua,2008,2,18,11,2008,22,11,2008,1,Managua,NA,1000s,opposition activists,"political behavior, process",crowd dispersal,4
7111,North Korea Sinuiju,40.10056,124.39806,North Korea,1993,1,21,4,1993,25,4,1993,1,Sinuiju,NA,30000,"workers, famers, fishermen","political behavior, process",arrests,4
7238,"Pakistan Lahore, Islamabad",31.62386,74.43409,Pakistan,2007,2,12,3,2007,16,3,2007,1,"Lahore, Islamabad",NA,1000,"lawyers, opposition supporters","political behavior, process",beatings,4
7275,Panama Pan American Highway,NA,NA,Panama,2012,1,1,2,2012,5,2,2012,1,Pan American Highway,NA,100s-1000s,indigenous groups,"political behavior, process",crowd dispersal,4
7391,Peru Islay,-17,-71.83333,Peru,2010,3,14,4,2010,18,4,2010,0,Islay,NA,10000,Peruvians,"political behavior, process",accomodation,4
7400,Peru Lima,-12.04318,-77.02824,Peru,1991,6,19,8,1991,23,8,1991,0,Lima,NA,500,teachers,labor wage dispute,accomodation,4
7411,Peru Lima,-12.04318,-77.02824,Peru,2016,3,15,11,2016,19,11,2016,0,Lima,2000-4999,thousands,workers,labor wage dispute,ignore,4
7422,Peru Lima,-12.04318,-77.02824,Peru,2014,4,21,4,2014,25,4,2014,0,Lima,50-99,50+,indigenous protesters,"political behavior, process",crowd dispersal,4
8183,South Korea Nationwide,NA,NA,South Korea,2000,22,5,10,2000,9,10,2000,0,Nationwide,NA,10000,doctors and medical workers,labor wage dispute,ignore,4
8344,South Korea Seoul,37.566,126.9784,South Korea,1999,14,11,8,1999,15,8,1999,0,Seoul,NA,4000,agricultural workers,"political behavior, process",ignore,4
8377,South Korea Seoul,37.566,126.9784,South Korea,2000,28,23,12,2000,27,12,2000,0,Seoul,NA,8000,bank workers,labor wage dispute,ignore,4
8448,South Korea Seoul,37.566,126.9784,South Korea,2009,1,1,1,2009,5,1,2009,0,Seoul,NA,50,Democratic Party parliamentarians and supporters,"political behavior, process",crowd dispersal,4
8570,Sri Lanka Colombo,6.93548,79.84868,Sri Lanka,2001,1,4,2,2001,8,2,2001,0,Colombo,NA,1000,opposition supporters,"political behavior, process",ignore,4
8660,Suriname Paramaribo,5.86638,-55.16682,Suriname,2002,2,15,1,2002,19,1,2002,0,Paramaribo,NA,2450,state owned banana company workers,labor wage dispute,ignore,4
8793,Taiwan Taipei,25.04776,121.53185,Taiwan,2000,1,18,3,2000,22,3,2000,1,Taipei,NA,600,supporters of second place getter James Soong Chu yu,"political behavior, process",crowd dispersal,4
8907,Tajikistan Khojand,NA,NA,Tajikistan,1996,3,12,5,1996,16,5,1996,0,Khojand,NA,4000,local discontents,"price increases, tax policy",accomodation,4
8965,Thailand Bangkok,13.75398,100.50144,Thailand,1997,4,20,10,1997,24,10,1997,0,Bangkok,NA,8000,"acdemics, business people, office workers",removal of politician,ignore,4
8977,Thailand Bangkok,13.75398,100.50144,Thailand,2000,5,1,8,2000,5,8,2000,0,Bangkok,NA,1000,Assembly of the Poor,"political behavior, process",ignore,4
9188,Tunisia Tunis,36.81897,10.16579,Tunisia,2013,4,25,7,2013,29,7,2013,0,Tunis,NA,100s,Trade Unions,police brutality,crowd dispersal,4
9222,Turkey Diyarbakir,37.91363,40.21721,Turkey,2006,1,28,3,2006,1,4,2006,1,Diyarbakir,NA,1000,Kurds,"political behavior, process",crowd dispersal,4
9226,Turkey Istabul,NA,NA,Turkey,2017,5,24,7,2017,28,7,2017,0,Istabul,50-99,50,journalists,"political behavior, process",ignore,4
9843,United Kingdom Northern Ireland,54.75844,-2.69531,United Kingdom,1996,8,7,7,1996,11,7,1996,1,Northern Ireland,>10000,10000s,"Ulster Unionist Party, Protestants, Orangemen, Orange Order","political behavior, process",crowd dispersal,4
10023,Venezuela Caracas,10.48801,-66.87919,Venezuela,2017,2,31,3,2017,4,4,2017,1,Caracas,2000-4999,Several thousand protesters,Students; Supporters of parliament; Opposition activists,"political behavior, process",beatings,4
10148,Vietnam Dong Nai,11,107.16667,Vietnam,1997,2,7,11,1997,11,11,1997,1,Dong Nai,NA,1000,"Catholics, farmers, villagers","price increases, tax policy",accomodation,4
10358,Yugoslavia Sumadija,NA,NA,Yugoslavia,2000,11,30,9,2000,4,10,2000,0,Sumadija,2000-4999,2000+,miners and relatives,"political behavior, process",crowd dispersal,4
10466,Zimbabwe Harare,-17.82772,31.05337,Zimbabwe,1990,4,25,10,1990,29,10,1990,1,Harare,100-999,hundreds,university students,"political behavior, process",crowd dispersal,4
19,Afghanistan Kabul,34.52813,69.17233,Afghanistan,2017,2,2,6,2017,5,6,2017,1,Kabul,5000-10000,thousands,Uprising for Change,removal of politician,crowd dispersal,3
33,Albania Polican,40.58608,20.04535,Albania,1992,3,25,8,1992,28,8,1992,1,Polican,100-999,> 50,Workers,labor wage dispute,crowd dispersal,3
91,Algeria Algiers Province,36.73225,3.08746,Algeria,1991,2,25,6,1991,28,6,1991,1,Algiers Province,NA,100,muslim fundamentalists,"political behavior, process",killings,3
158,Argentina Buenos Aires,-34.61315,-58.37723,Argentina,1999,1,10,5,1999,13,5,1999,0,Buenos Aires,NA,1000,students,"political behavior, process",accomodation,3
172,Argentina Buenos Aires,-34.61315,-58.37723,Argentina,2002,6,22,4,2002,25,4,2002,0,Buenos Aires,NA,1000,"angry bank depositors, unemployed","political behavior, process",ignore,3
453,Bangladesh Chittagong,22.3384,91.83168,Bangladesh,2014,28,7,5,2014,10,5,2014,1,Chittagong,50-99,>50,Bangladesh Chhatra League  BCL,police brutality,ignore,3
500,Bangladesh Dhaka,23.7104,90.40744,Bangladesh,1995,13,8,12,1995,11,12,1995,1,Dhaka,NA,300,Awami League,removal of politician,beatings,3
591,Bangladesh Dhaka,23.7104,90.40744,Bangladesh,2006,13,27,10,2006,30,10,2006,1,Dhaka,NA,50,Awami League,"political behavior, process",killings,3
636,Bangladesh Dhaka,23.7104,90.40744,Bangladesh,2011,52,13,11,2011,16,11,2011,0,Dhaka,NA,100s,Small investors of Dhaka Stock Exchange,"political behavior, process",ignore,3
640,Bangladesh Dhaka,23.7104,90.40744,Bangladesh,2014,52,12,11,2014,15,11,2014,0,Dhaka,100-999,>100,students,"political behavior, process",ignore,3
815,Bolivia Cochabamba,-17.3895,-66.1568,Bolivia,2007,1,8,1,2007,11,1,2007,1,Cochabamba,NA,1000,"ruling leftist party Movimiento al Socialismo  MAS , labour unions, and indigenous groups",removal of politician,crowd dispersal,3
860,Bolivia La Paz,-16.5,-68.15,Bolivia,2004,3,19,4,2004,22,4,2004,1,La Paz,NA,4000,"university students, officials and professors","political behavior, process",ignore,3
880,Bolivia Santa Cruz,-17.78629,-63.18117,Bolivia,2015,7,17,8,2015,20,8,2015,0,Santa Cruz,100-999,500,prisoners,"political behavior, process",accomodation,3
883,Bolivia Sucre,-19.03332,-65.26274,Bolivia,2007,3,3,9,2007,6,9,2007,1,Sucre,NA,60,NA,"political behavior, process",crowd dispersal,3
1542,China Guangxi Province,24,109,China,2007,2,17,5,2007,20,5,2007,1,Guangxi Province,NA,1000,locals,social restrictions,crowd dispersal,3
1549,"China Haimen, Guangdong Province",23.19346,116.61219,China,2011,12,21,12,2011,24,12,2011,0,"Haimen, Guangdong Province",NA,1000s,unspecified,"political behavior, process",crowd dispersal,3
1635,China Lhasa,29.65,91.1,China,1998,4,1,5,1998,4,5,1998,0,Lhasa,NA,50,Tibetan prisoners,"political behavior, process",killings,3
1647,"China Lufeng, Guangdong province",22.94593,115.64204,China,2011,10,21,9,2011,24,9,2011,1,"Lufeng, Guangdong province",NA,1000,farmers,land farm issue,arrests,3
1656,China Ningbo,29.87819,121.54945,China,2012,20,26,10,2012,29,10,2012,1,Ningbo,NA,1000s,local residents,"political behavior, process",crowd dispersal,3
1666,China Shanghai,31.22222,121.45806,China,2011,2,21,4,2011,24,4,2011,1,Shanghai,NA,1000s,truck drivers,"price increases, tax policy",arrests,3
1709,China Zhushan,35.96111,120.07195,China,2007,1,9,3,2007,12,3,2007,1,Zhushan,NA,20000,"farmers, locals","price increases, tax policy",beatings,3
1758,Comoros Anjouan Island,-12.21999,44.4421,Comoros,1997,3,14,3,1997,17,3,1997,1,Anjouan Island,2000-4999,3000+,Civil Servants,labor wage dispute,arrests,3
1780,Comoros Moroni,-11.70216,43.25506,Comoros,2001,3,5,10,2001,8,10,2001,0,Moroni,100-999,100+,Taxi Drivers,labor wage dispute,crowd dispersal,3
2174,Dominican Republic Santo Domingo,18.47186,-69.89232,Dominican Republic,1995,5,7,9,1995,10,9,1995,1,Santo Domingo,NA,100s,sugar workers,labor wage dispute,arrests,3
2240,Ecuador Quito,-0.22985,-78.52495,Ecuador,1992,1,11,4,1992,14,4,1992,0,Quito,NA,500,Indians,"political behavior, process",ignore,3
2243,Ecuador Quito,-0.22985,-78.52495,Ecuador,1994,1,28,1,1994,31,1,1994,1,Quito,NA,100,students,"price increases, tax policy",arrests,3
2286,Egypt Cairo,30.06263,31.24967,Egypt,1991,2,24,2,1991,27,2,1991,1,Cairo,NA,1000,students,"political behavior, process",shootings,3
2361,Egypt Cairo Boulaq,30.06041,31.23147,Egypt,1992,1,17,10,1992,20,10,1992,0,Cairo Boulaq,NA,100,working class,"political behavior, process",accomodation,3
2540,France Calais,50.95194,1.85635,France,2002,8,11,11,2002,14,11,2002,0,Calais,100-999,>100,asylum seekers,"political behavior, process",crowd dispersal,3
2606,France Notre Dame des Landes,47.38113,-1.70949,France,2018,3,15,1,2018,18,1,2018,0,Notre Dame des Landes,100-999,hundreds,environmentalists,land farm issue,accomodation,3
2691,France Paris,48.85341,2.3488,France,2006,2,8,3,2006,11,3,2006,1,Paris,100-999,200,students,"political behavior, process",crowd dispersal,3
2807,France Vaulx en Velin,45.78693,4.9251,France,1990,18,6,10,1990,9,10,1990,1,Vaulx en Velin,100-999,100s,immigrant youth,police brutality,crowd dispersal,3
2821,Gabon Libreville,0.39241,9.45356,Gabon,1994,1,21,2,1994,24,2,1994,1,Libreville,100-999,hundreds,Opposition supporters,"political behavior, process",ignore,3
2938,Germany Berlin,52.52437,13.41053,Germany,2007,2,1,5,2007,4,5,2007,1,Berlin,50-99,>50,"Red Army Faction, protesters, leftists",labor wage dispute,crowd dispersal,3
3091,Germany Frankfurt,50.11552,8.68417,Germany,2012,5,16,5,2012,19,5,2012,0,Frankfurt,>10000,20000,Blockupy supporters,"political behavior, process",ignore,3
3515,Guatemala Guatemala City,14.64072,-90.51327,Guatemala,1997,1,30,1,1997,2,2,1997,1,Guatemala City,NA,1000,NA,labor wage dispute,crowd dispersal,3
3903,Hungary Budapest,47.49835,19.04045,Hungary,2017,3,12,4,2017,15,4,2017,0,Budapest,>10000,tens of thousands,protesters,"political behavior, process",ignore,3
3941,India Hyderabad,17.38405,78.45636,India,2009,5,11,12,2009,14,12,2009,0,Hyderabad,NA,100,partition opponents,"political behavior, process",arrests,3
3987,India New Delhi,28.65195,77.23149,India,2014,6,1,2,2014,4,2,2014,0,New Delhi,100-999,50+,students,social restrictions,ignore,3
4181,Iran Tehran,35.69439,51.42151,Iran,1999,3,10,7,1999,13,7,1999,1,Tehran,NA,10000,students,"political behavior, process",beatings,3
4329,Ireland Cork,51.89797,-8.47061,Ireland,2014,32,15,9,2014,18,9,2014,0,Cork,100-999,300,asylum seekers,"political behavior, process",ignore,3
4910,Japan Osaka,34.69374,135.50218,Japan,1990,3,2,10,1990,5,10,1990,1,Osaka,NA,1500,day labourers,police brutality,crowd dispersal,3
4972,"Jordan Karak, Amman",31.09283,35.7127,Jordan,1996,1,16,6,1996,19,6,1996,1,"Karak, Amman",NA,1000,Jordanians,"price increases, tax policy",arrests,3
5021,Kazakhstan Karaganda,49.80187,73.10211,Kazakhstan,1997,1,4,2,1997,7,2,1997,0,Karaganda,NA,100,Coal Workers,labor wage dispute,ignore,3
5437,"Kyrgyzstan Jeti Oguz District , Issyk Kul Region",42.3396,78.0017,Kyrgyzstan,2013,20,28,5,2013,31,5,2013,1,"Jeti Oguz District , Issyk Kul Region",NA,2000,unspecified,"political behavior, process",crowd dispersal,3
5663,"Liberia Monrovia, Montserrado county",6.30054,-10.7969,Liberia,2005,4,11,11,2005,14,11,2005,1,"Monrovia, Montserrado county",2000-4999,1000s,Weah supporters,"political behavior, process",beatings,3
5739,Macedonia Skopje,41.99646,21.43141,Macedonia,1993,1,18,2,1993,21,2,1993,1,Skopje,50-99,50+,rioters,"political behavior, process",crowd dispersal,3
5811,Madagascar Antananarivo,-18.91368,47.53613,Madagascar,1991,7,23,7,1991,26,7,1991,1,Antananarivo,>10000,100000+,Anti Government Demonstrators,"political behavior, process",crowd dispersal,3
5841,Madagascar Antananarivo,-18.91368,47.53613,Madagascar,2009,5,25,3,2009,28,3,2009,0,Antananarivo,>10000,30000+,Ex President Ravalomanana Supporters,"political behavior, process",shootings,3
5855,Madagascar Toamasina,-18.1492,49.40234,Madagascar,2014,2,19,12,2014,22,12,2014,1,Toamasina,100-999,100s,Toamasina Residents,"political behavior, process",shootings,3
6034,Mali Bamako,12.65,-8,Mali,1991,2,22,3,1991,25,3,1991,1,Bamako,>10000,100000,students,"political behavior, process",ignore,3
6197,Mexico Teopisca,16.55969,-92.51672,Mexico,1994,3,7,2,1994,10,2,1994,1,Teopisca,NA,100s,peasant farmers,"political behavior, process",ignore,3
6271,Moldova Chisinau,47.00556,28.8575,Moldova,2012,1,22,1,2012,25,1,2012,0,Chisinau,50-99,>50,"communists, opposition supporters","political behavior, process",ignore,3
6448,Myanmar Myitkyina,25.38327,97.39637,Myanmar,2016,5,3,10,2016,6,10,2016,0,Myitkyina,2000-4999,Thousands,"Kachin Development Network Group, protesters calling for the Burmese army to withdraw its troops from the Kachin region","political behavior, process",ignore,3
6674,Namibia Windhoek,-22.55941,17.08323,Namibia,2012,9,15,7,2012,18,7,2012,0,Windhoek,100-999,200,"Rally for Democracy and Progress  RDP  supporters, other opposition party supporters","political behavior, process",crowd dispersal,3
6702,Nepal Kathmandu,27.70169,85.3206,Nepal,1998,1,13,2,1998,16,2,1998,0,Kathmandu,NA,50,Private gas dealers & business supporting the Federation of Nepalese Chamber of Commerce and Industry  FNCCI,"price increases, tax policy",accomodation,3
6745,Nepal Kathmandu,27.70169,85.3206,Nepal,2006,8,13,4,2006,16,4,2006,0,Kathmandu,NA,1000,seven main political parties,"political behavior, process",accomodation,3
7010,Niger Zinder,13.80716,8.9881,Niger,1993,3,10,7,1993,13,7,1993,1,Zinder,50-99,50+,Soldiers,labor wage dispute,ignore,3
7039,Nigeria Asaba,6.19824,6.73187,Nigeria,2016,37,18,5,2016,21,5,2016,0,Asaba,50-99,50+,Nigeria Labour Congress,"price increases, tax policy",ignore,3
7117,Oman Ibri,23.22573,56.51572,Oman,2011,5,10,3,2011,13,3,2011,1,Ibri,NA,100s,NA,"political behavior, process",crowd dispersal,3
7177,Pakistan Islamabad,33.72148,73.04329,Pakistan,2013,2,14,1,2013,17,1,2013,1,Islamabad,NA,40000,"men, women, children, supporters of Muhammad Tahir ul Qadri, a Canadian Pakistani religious cleric","political behavior, process",crowd dispersal,3
7219,Pakistan Lahore,31.558,74.35071,Pakistan,1992,4,23,11,1992,26,11,1992,0,Lahore,NA,10000,Bhutto supporters,"political behavior, process",ignore,3
7267,"Panama Changuinola, Bocas del Toro",9.43,-82.52,Panama,2010,2,8,7,2010,11,7,2010,1,"Changuinola, Bocas del Toro",NA,7000,Banana Workers Union,labor wage dispute,crowd dispersal,3
7285,Panama Panama City,8.9936,-79.51973,Panama,1996,2,27,5,1996,30,5,1996,1,Panama City,NA,100s,Movement of Unity Against Impunity,"political behavior, process",crowd dispersal,3
7373,Peru Arequipa,-16.39889,-71.535,Peru,2010,2,4,4,2010,7,4,2010,0,Arequipa,NA,16000,miners,"political behavior, process",killings,3
8063,South Africa Johannesburg,-26.20227,28.04363,South Africa,1993,10,18,8,1993,21,8,1993,1,Johannesburg,100-999,150+,Witwatersrand University Students,"political behavior, process",crowd dispersal,3
8182,South Korea Nationwide,NA,NA,South Korea,2007,9,25,5,2007,28,5,2007,0,Nationwide,NA,30000,metal workers,"political behavior, process",ignore,3
8186,South Korea Nationwide,NA,NA,South Korea,1990,10,7,5,1990,10,5,1990,1,Nationwide,NA,6000,"radicals, students","political behavior, process",beatings,3
8231,South Korea Nationwide,NA,NA,South Korea,2006,2,28,2,2006,3,3,2006,0,Nationwide,NA,50000,workers,labor wage dispute,ignore,3
8337,South Korea Seoul,37.566,126.9784,South Korea,1999,7,20,4,1999,23,4,1999,1,Seoul,NA,6000,transit workers,labor wage dispute,arrests,3
8471,Spain Barcelona,41.38879,2.15899,Spain,2014,3,26,5,2014,29,5,2014,1,Barcelona,100-999,50+,protesters,"political behavior, process",crowd dispersal,3
8600,Sri Lanka Colombo,6.93548,79.84868,Sri Lanka,2014,11,5,10,2014,8,10,2014,1,Colombo,100-999,100s,Sabaragamuwa University students,"political behavior, process",ignore,3
8629,Sudan Khartoum,15.55177,32.53241,Sudan,2005,2,1,8,2005,4,8,2005,1,Khartoum,NA,1400,southerners,"political behavior, process",killings,3
8651,Suriname Paramaribo,5.86638,-55.16682,Suriname,1998,3,9,6,1998,12,6,1998,0,Paramaribo,NA,50,Surinamese,"political behavior, process",accomodation,3
8712,Swaziland Mbabane,-26.31667,31.13333,Swaziland,2011,7,5,9,2011,8,9,2011,0,Mbabane,5000-10000,5000+,Pro Democracy Activists,"political behavior, process",crowd dispersal,3
8818,Taiwan Taipei,25.04776,121.53185,Taiwan,1996,4,15,10,1996,18,10,1996,1,Taipei,NA,10000,Pro nuclear activits,"political behavior, process",crowd dispersal,3
8819,Taiwan Taipei,25.04776,121.53185,Taiwan,1996,5,15,10,1996,18,10,1996,1,Taipei,NA,2000,anti nuclear protesters,"political behavior, process",crowd dispersal,3
8916,Tajikistan Vakhsh,37.75602,68.94138,Tajikistan,1995,1,6,8,1995,9,8,1995,0,Vakhsh,NA,150,military families,"price increases, tax policy",ignore,3
8970,Thailand Bangkok,13.75398,100.50144,Thailand,1998,5,9,12,1998,12,12,1998,1,Bangkok,NA,5000,environmentalists,land farm issue,accomodation,3
8973,Thailand Bangkok,13.75398,100.50144,Thailand,1999,3,1,4,1999,4,4,1999,0,Bangkok,NA,1500,"Assembly of the Poor, Foundation for Democracy Heroes",labor wage dispute,ignore,3
9064,Thailand Bangkok,13.75398,100.50144,Thailand,2008,8,30,8,2008,2,9,2008,0,Bangkok,NA,2000,Women for Democracy,"political behavior, process",ignore,3
9219,Turkey Diyarbakir,37.91363,40.21721,Turkey,2009,2,12,12,2009,15,12,2009,1,Diyarbakir,NA,1000,Kurds,"political behavior, process",crowd dispersal,3
9234,Turkey Istanbul,41.01384,28.94966,Turkey,1998,1,24,2,1998,27,2,1998,0,Istanbul,NA,1000,muslims,social restrictions,accomodation,3
9278,Turkmenistan Asgabat,37.95,58.38333,Turkmenistan,2008,1,17,2,2008,20,2,2008,0,Asgabat,NA,300,Iranian truck drivers,police brutality,ignore,3
9288,Uganda Kakira,0.50833,33.28778,Uganda,1991,3,23,9,1991,26,9,1991,1,Kakira,50-99,>50,Workers,labor wage dispute,ignore,3
9290,Uganda Kampala,0.31628,32.58219,Uganda,1991,1,19,3,1991,22,3,1991,1,Kampala,100-999,500,Muslim youth fundamentalists,"political behavior, process",ignore,3
9875,United Kingdom South Wales Scotland,NA,NA,United Kingdom,2008,7,13,6,2008,16,6,2008,0,South Wales Scotland,50-99,50+,hauliers,"price increases, tax policy",ignore,3
10020,Venezuela Caracas,10.48801,-66.87919,Venezuela,2016,3,15,5,2016,18,5,2016,0,Caracas,5000-10000,several thousand,opposition supporters,removal of politician,crowd dispersal,3
10112,Venezuela Caracas,10.48801,-66.87919,Venezuela,2010,2,25,1,2010,28,1,2010,0,Caracas,NA,1000,Venezuelans and university students,"political behavior, process",accomodation,3
10115,Venezuela Caracas,10.48801,-66.87919,Venezuela,2013,2,15,2,2013,18,2,2013,0,Caracas,NA,>50,university students,"political behavior, process",ignore,3
10161,Yemen Aden,12.77944,45.03667,Yemen,1994,3,2,9,1994,5,9,1994,1,Aden,NA,50,Salafiyah,social restrictions,ignore,3
10208,Yemen Sana,15.35472,44.20667,Yemen,2005,3,20,7,2005,23,7,2005,1,Sana,NA,100,protestors,"price increases, tax policy",killings,3
96,Algeria Berber Region,NA,NA,Algeria,2001,1,28,4,2001,30,4,2001,1,Berber Region,NA,50,Berber youths,police brutality,killings,2
100,Algeria Ghardaia,31.08333,3.16667,Algeria,2014,8,13,10,2014,15,10,2014,0,Ghardaia,100-999,100s,policemen,labor wage dispute,accomodation,2
168,Argentina Buenos Aires,-34.61315,-58.37723,Argentina,2002,1,10,1,2002,12,1,2002,1,Buenos Aires,NA,1000,NA,"political behavior, process",ignore,2
202,Argentina San Vicente,-31.5375,-68.53639,Argentina,1990,2,15,1,1990,17,1,1990,0,San Vicente,NA,100,NA,police brutality,accomodation,2
220,Armenia Yerevan,40.18111,44.51361,Armenia,1996,1,23,9,1996,25,9,1996,0,Yerevan,NA,100000,National Democratic Union,"political behavior, process",beatings,2
307,Azerbaijan Baku,40.37767,49.89201,Azerbaijan,1992,2,15,5,1992,17,5,1992,1,Baku,NA,30000,Popular Front,"political behavior, process",shootings,2
396,Azerbaijan Ismayilli,40.83333,48.16667,Azerbaijan,2013,1,23,1,2013,25,1,2013,1,Ismayilli,NA,1000s,Protesters,"political behavior, process",crowd dispersal,2
426,Bahrain Manama,26.22787,50.58565,Bahrain,2007,3,17,12,2007,19,12,2007,1,Manama,NA,100,Shiites,"political behavior, process",crowd dispersal,2
434,Bahrain Manama,26.22787,50.58565,Bahrain,2012,6,20,4,2012,22,4,2012,1,Manama,NA,1000s,NA,"political behavior, process",crowd dispersal,2
488,Bangladesh Dhaka,23.7104,90.40744,Bangladesh,1995,1,2,1,1995,4,1,1995,1,Dhaka,NA,100,"Jatiyo party, the Jamaat i Islami  nd Awami League",removal of politician,arrests,2
525,Bangladesh Dhaka,23.7104,90.40744,Bangladesh,1999,2,9,2,1999,11,2,1999,1,Dhaka,NA,340,Jamaat i Islami party and Jatiyo Party,"political behavior, process",arrests,2
546,Bangladesh Dhaka,23.7104,90.40744,Bangladesh,2000,3,15,2,2000,17,2,2000,1,Dhaka,NA,100,four party anti government alliance,"political behavior, process",arrests,2
556,Bangladesh Dhaka,23.7104,90.40744,Bangladesh,2001,2,30,3,2001,1,4,2001,1,Dhaka,NA,100,protesters,removal of politician,crowd dispersal,2
557,Bangladesh Dhaka,23.7104,90.40744,Bangladesh,2001,3,9,4,2001,11,4,2001,1,Dhaka,NA,150,Bangladesh Nationalist Party,removal of politician,killings,2
558,Bangladesh Dhaka,23.7104,90.40744,Bangladesh,2001,4,23,4,2001,25,4,2001,1,Dhaka,NA,100,Bangladesh Nationalist Party,removal of politician,crowd dispersal,2
568,Bangladesh Dhaka,23.7104,90.40744,Bangladesh,2013,13,18,12,2013,20,12,2013,0,Dhaka,NA,100s,NA,"political behavior, process",arrests,2
608,Bangladesh Dhaka,23.7104,90.40744,Bangladesh,2011,26,12,6,2011,14,6,2011,1,Dhaka,NA,10000s,NA,"price increases, tax policy",arrests,2
630,Bangladesh Dhaka,23.7104,90.40744,Bangladesh,2011,39,11,9,2011,13,9,2011,0,Dhaka,NA,100s,Small investors of Dhaka Stock Exchange,"political behavior, process",crowd dispersal,2
638,Bangladesh Dhaka,23.7104,90.40744,Bangladesh,2011,54,27,11,2011,29,11,2011,1,Dhaka,NA,50,Ward Councillors of Dhaka City Corporation,"political behavior, process",crowd dispersal,2
646,Bangladesh Dhaka,23.7104,90.40744,Bangladesh,2014,15,4,3,2014,6,3,2014,0,Dhaka,100-999,100s,"JnU Teachers Association, JnU students, Hall Uddhar Sangram Committee","political behavior, process",ignore,2
729,Belarus Minsk,53.9,27.56667,Belarus,2004,2,18,10,2004,20,10,2004,0,Minsk,1000-1999,1000,students and youths,"political behavior, process",beatings,2
775,Benin Cotonou,6.36536,2.41833,Benin,1997,2,2,12,1997,4,12,1997,0,Cotonou,100-999,300,government workers & trade union grouping,labor wage dispute,ignore,2
814,Bolivia Cochabamba,-17.3895,-66.1568,Bolivia,2000,1,11,1,2000,13,1,2000,1,Cochabamba,NA,1000,NA,"price increases, tax policy",crowd dispersal,2
818,Bolivia Cochabamba and La Paz,-15.65374,-68.71602,Bolivia,2012,4,10,5,2012,12,5,2012,1,Cochabamba and La Paz,NA,>50,"Bolivian Labour Federation  COB , university students, health care workers, doctors",labor wage dispute,crowd dispersal,2
826,Bolivia La Paz,-16.5,-68.15,Bolivia,1995,3,19,2,1995,21,2,1995,1,La Paz,NA,50,Bolivian Labour Confederation,"political behavior, process",crowd dispersal,2
836,Bolivia La Paz,-16.5,-68.15,Bolivia,1995,4,21,2,1995,23,2,1995,1,La Paz,NA,100,urban and rural teachers  federations,labor wage dispute,crowd dispersal,2
906,Botswana Gaborone,-24.65451,25.90859,Botswana,1995,1,16,2,1995,18,2,1995,1,Gaborone,1000-1999,1000,Students,"political behavior, process",crowd dispersal,2
994,Brazil Sao Paulo,-23.5475,-46.63611,Brazil,2009,1,23,7,2009,25,7,2009,0,Sao Paulo,NA,50,indigenous people,"political behavior, process",ignore,2
1125,"Burkina Faso Ouagadougou, Kadiogo Province",12.36566,-1.53388,Burkina Faso,2000,2,27,11,2000,29,11,2000,0,"Ouagadougou, Kadiogo Province",50-99,50+,high school pupils,"political behavior, process",arrests,2
1247,Cambodia Phnom Penh,11.56245,104.91601,Cambodia,2013,3,15,9,2013,17,9,2013,1,Phnom Penh,NA,20000,opposition Cambodia National Rescue Party  CNRP,"political behavior, process",crowd dispersal,2
1429,Chile Puerto Aysen,-45.40303,-72.69184,Chile,2012,2,20,2,2012,22,2,2012,0,Puerto Aysen,NA,1000s,NA,labor wage dispute,accomodation,2
1476,Chile Santiago,-33.45694,-70.64827,Chile,2008,5,2,6,2008,4,6,2008,0,Santiago,NA,1000,students and teachers,"political behavior, process",arrests,2
1516,China Beijing,39.9075,116.39723,China,1999,6,25,10,1999,27,10,1999,0,Beijing,NA,100,Falun Gong  Qigong cult,social restrictions,arrests,2
1517,China Beijing,39.9075,116.39723,China,2000,11,20,7,2000,22,7,2000,0,Beijing,NA,100,Falun Gong  Qigong cult,social restrictions,arrests,2
1588,China Hong Kong,22.27832,114.17469,China,2014,36,25,12,2014,27,12,2014,0,Hong Kong,50-99,50,protesters,"political behavior, process",ignore,2
1612,China Hong Kong,22.27832,114.17469,China,2012,18,7,9,2012,9,9,2012,0,Hong Kong,NA,27500,Scholarism  student group,"political behavior, process",accomodation,2
1673,"China Shifang, Sichuan Province",31.22486,104.03461,China,2012,12,1,7,2012,3,7,2012,1,"Shifang, Sichuan Province",NA,1000s,unspecified,"political behavior, process",crowd dispersal,2
1696,China Yangjiazhangzi,42.3238,121.286,China,2000,2,27,2,2000,29,2,2000,1,Yangjiazhangzi,NA,20000,unemployed miners,"political behavior, process",crowd dispersal,2
1728,Colombia Bogota,4.60971,-74.08175,Colombia,2010,1,1,3,2010,3,3,2010,1,Bogota,NA,1000,public transport workers,"political behavior, process",crowd dispersal,2
1785,Comoros Moroni,-11.70216,43.25506,Comoros,1998,2,11,5,1998,13,5,1998,1,Moroni,2000-4999,1000s,Government Employees and Youths,labor wage dispute,arrests,2
1786,Comoros Moroni,-11.70216,43.25506,Comoros,1999,1,26,4,1999,28,4,1999,1,Moroni,100-999,150,Anti Anjouan Youths,"political behavior, process",ignore,2
1867,Congo Kinshasa Kinshasa,-2.5,23.5,Congo Kinshasa,2015,1,19,1,2015,21,1,2015,1,Kinshasa,100-999,100s,protesters,"political behavior, process",crowd dispersal,2
1880,"Congo Kinshasa Kinshasa, Kinshasa Province",-5.37217,16.20401,Congo Kinshasa,1993,3,24,2,1993,26,2,1993,0,"Kinshasa, Kinshasa Province",100-999,100+,soldiers,labor wage dispute,ignore,2
1897,"Costa Rica Limon, Puntarenas",9.9295,-84.71331,Costa Rica,2000,7,3,4,2000,5,4,2000,0,"Limon, Puntarenas",NA,1000s,"trade unions, civic organizations","price increases, tax policy",crowd dispersal,2
1921,Croatia Zagreb,45.81444,15.97798,Croatia,2001,1,8,2,2001,10,2,2001,0,Zagreb,2000-4999,1000s,veterans,"political behavior, process",ignore,2
2074,Cyprus Nicosia,35.17531,33.3642,Cyprus,2010,4,3,7,2010,5,7,2010,0,Nicosia,100-999,>170,"bus drivers, Nicosia Bus Company",labor wage dispute,ignore,2
2082,Cyprus Nicosia,35.17531,33.3642,Cyprus,2012,12,11,12,2012,13,12,2012,1,Nicosia,50-99,>50,"teachers, the disabled, members of large families","political behavior, process",crowd dispersal,2
2123,Cyprus Paphos,34.77679,32.42451,Cyprus,2008,1,7,10,2008,9,10,2008,0,Paphos,50-99,50,villagers,land farm issue,accomodation,2
2183,Dominican Republic Santo Domingo,18.47186,-69.89232,Dominican Republic,1997,5,20,10,1997,22,10,1997,1,Santo Domingo,NA,50,unspecified,"price increases, tax policy",crowd dispersal,2
2242,Ecuador Quito,-0.22985,-78.52495,Ecuador,1992,4,19,10,1992,21,10,1992,0,Quito,NA,50,transportation workers,labor wage dispute,accomodation,2
2244,Ecuador Quito,-0.22985,-78.52495,Ecuador,1994,3,9,2,1994,11,2,1994,1,Quito,NA,50,"workers, students, women","price increases, tax policy",crowd dispersal,2
2266,Ecuador Quito,-0.22985,-78.52495,Ecuador,2006,1,17,1,2006,19,1,2006,0,Quito,NA,100,students,"political behavior, process",arrests,2
2311,Egypt Cairo,30.06263,31.24967,Egypt,2011,11,8,4,2011,10,4,2011,0,Cairo,NA,1000-10000,protesters,"political behavior, process",crowd dispersal,2
2346,Egypt Cairo,30.06263,31.24967,Egypt,2013,11,27,7,2013,29,7,2013,1,Cairo,NA,>100,Morsi s Supporters,"political behavior, process",shootings,2
2467,Ethiopia Addis Ababa,9.02497,38.74689,Ethiopia,2001,1,9,4,2001,11,4,2001,1,Addis Ababa,2000-4999,4000,Students,"political behavior, process",beatings,2
2469,Ethiopia Addis Ababa,9.02497,38.74689,Ethiopia,2005,1,6,6,2005,8,6,2005,1,Addis Ababa,100-999,100s-500,Students,"political behavior, process",killings,2
2530,France Calais,50.95194,1.85635,France,2009,5,14,4,2009,16,4,2009,0,Calais,100-999,>100,French fishermen,"political behavior, process",ignore,2
2585,France Lyons,49.39892,1.47709,France,1997,18,16,12,1997,18,12,1997,1,Lyons,50-99,>50,youth,police brutality,crowd dispersal,2
2706,France Paris,48.85341,2.3488,France,2010,8,20,10,2010,22,10,2010,1,Paris,5000-10000,4000-12000,students,labor wage dispute,crowd dispersal,2
2815,Gabon Libreville,0.39241,9.45356,Gabon,1990,1,20,1,1990,22,1,1990,0,Libreville,100-999,>250,People,"political behavior, process",arrests,2
2816,Gabon Libreville,0.39241,9.45356,Gabon,1990,2,26,2,1990,28,2,1990,1,Libreville,50-99,>50,Students,"political behavior, process",crowd dispersal,2
2888,Georgia Tbilisi,41.69411,44.83368,Georgia,2003,3,21,11,2003,23,11,2003,0,Tbilisi,NA,10000,opposition supporters,removal of politician,accomodation,2
2895,Georgia Tbilisi,41.69411,44.83368,Georgia,2011,1,21,5,2011,23,5,2011,1,Tbilisi,NA,10000,Georgian opposition,removal of politician,crowd dispersal,2
